heure;event;SM;AvAr;choc;detection_0_text;coef;;Vbatt;Iuser_int;Icharge;;dir;dir ratio;dir bloque;dir bloque_inv;dir cons;dir err;;s_bfm;s_pwd_av;s_pwd_ar;s_pwd_avar;;vit_AvAr;vit_calc;V_limitee_par_tondeuses;V_Roues_RollPitch;vitesse_sense grp tonds;;G PWM act;H PWM act;I PWM act;J PWM act;;G PWM lu;H PWM lu;I PWM lu;J PWM lu;;G Speed_obj;H Speed_obj;I Speed_obj;J Speed_obj;;G BFM;H BFM;I BFM;J BFM;sBFM;sigma_BFM A3;sigma_BFM A5;;G s;H s;I s;J s;;G Pwd;H Pwd;I Pwd;J Pwd;sigma_Pwd;sigma_Pwd ratio;sigma_Pwd A5;sigma_Pwd A10;sigma_Pwd d5;sigma_Pwd d10;P_B;P_B ratio 2;BFM_PWD_av_ar;;Pwd Av;Pwd Ar;couple_ar;;T0 pwm;T0 pwm lu;T0 obj;T0 Sense;T0 Sense LT;T0 Sense ET;T0 bfm;T0 v sense;;T1 pwm;T1 pwm lu;T1 obj;T1 Sense;T1 Sense LT;T1 Sense ET;T1 bfm;T1 v sense;;T2 pwm;T2 pwm lu;T2 obj;T2 Sense;T2 Sense LT;T2 Sense ET;T2 bfm;T2 v sense;;sigma_sense_;histo_ratio_pwd;;ch_ev_D_g_20;ch_ev_D_g_5P;ch_ev_D_g_5M;ch_ev_D_g_inv;ch_ev_I_gx_5p;ch_ev_I_gy_5p;ch_ev_I_gz_5p;ch_ev_PI_gx_5;ch_ev_PI_gy_5;ch_ev_PI_gz_5;ch_ev_PI_gv_5p;ch_ev_PI_AX_500ms;ch_ev_PI_AY_500ms;ch_ev_PI_AXY_500ms;ch_ev_PI_AX_1000ms;ch_ev_PI_AY_1000ms;ch_ev_PI_AXY_1000ms;ch_ev_PI_Av5_10XY_sPd5;ch_ev_P_PB_ratio;ch_P_i_sigma_sense;;GPS_dist_5pts;GPS_dist_10pts;GPS_dist_20pts;GPS sBFM 5;GPS sPWD 5;Patine_GPS pwd 5;Patine_GPS bfm 5;Patine_GPS bfm 10;Patine_GPS bfm 20;GPS Heading_0_;GPS dist;k_gps.cap;GPHDT_heading;;IMUs reboot;T nbreb;T temp;TAx;TAy;TAz;TAdx;TAdy;TAdz;TAdv;TAdv s5 1;TAdv s15 5;TAx d5;TAy d5;TAz d5;TAx d10;TAy d10;TAz d10; Tseq;;TGx;TGy;TGz;;TKx;TKy;TKz;;TKx cT0;TKx cT1;TKx cT2;TKx sT0;TKx sT1;TKx sT2;;TKx v;TKy v;TKz v;;T heading;T heading_2;T heading d;T heading dET;T roll ;T pitch;T kest X;T kest Y;T kest Z;T rp_risk1;T rp_risk2;;;1714
09:37:36.982;0;8;4;-1;;100;;1579;1922;1022;;-11;-100;0;0;-9;2;;135779;146478;169788;316265;;1;151;127;176;176;;150;-127;159;-123;;123;-101;249;-94;;445;-382;442;-395;;393;-343;305;-352;1392;-10313;-3566;;619;452;833;361;;484;254;1111;230;2078;565;35278;5559;1411;500;39;259;2;;105;95;-47;;-140;175;-395;1033;1239;133;-389;210;;0;0;0;0;0;0;0;0;;-179;-12;-494;1430;1976;191;-485;129;;2462;0;;0;0;0;0;2018;582;307;0;0;0;0;0;0;0;0;0;0;0;259;4727;;1175;2195;2976;75762;57639;49;64;67;74;98;1175;104;-1;;0;98;39;157;3;990;51;-5;-58;5990;2844;1584;86;52;-11;8;39;-40;176;;234;419;101;;-97;421;-192;;50;0;140;1033;0;1430;;-122;241;-177;;109;108;-95;43;2;5;1019;298;9943;24;11;;;0
09:37:37.083;0;8;4;-1;;100;;1579;1922;1022;;-8;-63;0;0;-9;-4;;136541;147549;170981;318530;;1;128;128;174;174;;126;-109;106;-129;;146;-120;255;-27;;470;-398;498;-385;;411;-351;119;-374;1254;-3416;-6342;;827;611;1514;167;;695;414;2135;68;3312;599;55364;15407;2215;1387;51;383;3;;108;92;-255;;-140;255;-395;1017;1238;137;-407;211;;0;0;0;0;0;0;0;0;;-179;-255;-505;1382;1973;185;-498;134;;2399;0;;0;0;0;0;902;1276;321;0;0;0;0;221;221;221;0;0;0;0;383;5519;;1139;2223;3169;73784;55611;49;65;65;73;100;1139;104;-1;;0;98;39;96;17;1003;-19;8;45;2450;3922;1911;0;0;45;-21;58;-7;178;;-40;320;-27;;-154;741;-205;;50;0;140;1017;0;1382;;-178;566;-190;;105;105;-154;41;2;5;873;256;9958;22;8;;;1
09:37:37.182;0;8;4;-1;;100;;1579;1922;1022;;-12;-100;0;0;-9;3;;137304;148988;172662;321650;;1;132;132;171;175;;131;-110;146;-100;;146;-120;255;-27;;470;-398;498;-385;;411;-351;119;-374;1254;-3416;-6342;;827;611;1514;167;;695;414;2135;68;3312;599;55364;15407;2215;1387;51;383;3;;108;92;-255;;-140;255;-395;1017;1238;137;-407;211;;0;0;0;0;0;0;0;0;;-178;-255;-505;1382;1973;185;-498;134;;2399;0;;0;0;0;0;208;1649;252;0;0;0;0;231;227;221;0;0;0;0;383;5519;;1139;2223;3169;73784;55611;49;65;65;73;100;1139;105;-1;;0;98;39;108;32;986;12;15;-17;658;3702;2311;-47;22;64;-17;59;11;179;;-377;400;5;;-102;741;-193;;50;0;140;1017;0;1382;;-126;566;-178;;103;103;-178;31;1;4;801;160;9967;19;7;;;2
09:37:37.282;0;8;4;-1;;100;;1579;1922;1022;;-17;-148;0;0;-9;5;;137953;150426;174344;324770;;1;132;133;171;175;;131;-110;152;-95;;124;-101;255;-36;;395;-341;332;-404;;348;-302;209;-390;1249;-7182;-7681;;991;590;805;95;;748;378;1444;31;2600;-18;44288;19672;1772;1770;46;126;1;;73;127;-181;;-140;-255;-395;832;1236;126;-384;221;;0;0;0;0;0;0;0;0;;-178;-255;-505;1679;1972;225;-485;105;;2510;0;;0;0;0;0;-1595;1819;-342;660;891;531;180;0;0;0;0;0;0;383;126;4992;;1139;2223;3169;73784;55611;49;65;65;73;100;1139;105;-1;;0;98;39;121;1;996;-21;1;21;883;1407;2792;34;-26;-10;48;8;43;182;;-362;441;-140;;-131;825;-199;;50;0;140;832;0;1679;;-159;632;-181;;103;103;-207;92;-1;4;802;-169;9966;18;7;;;3
09:37:37.383;0;8;4;-1;;100;;1579;2407;1038;;-18;-147;-1;0;-9;8;;138618;152007;175244;327251;;1;133;105;171;173;;133;-111;166;-85;;132;-91;255;-55;;410;-345;458;-313;;357;-308;363;-289;1317;3152;-1542;;752;443;805;79;;642;276;1306;28;2250;-120;22288;23415;892;2107;41;55;1;;85;115;74;;-140;-255;-395;829;1235;117;-380;222;;0;0;0;0;0;0;0;0;;-204;-56;-502;1668;1971;240;-495;106;;2497;0;;0;0;0;0;-1109;1264;-1060;331;450;265;92;0;0;0;219;243;211;504;55;4577;;1139;2223;3169;73784;55611;49;65;65;73;100;1139;105;-1;;0;98;39;98;-26;960;17;14;-45;2510;1960;2797;-64;-50;-22;-36;-40;36;184;;112;63;-483;;-118;771;-193;;50;0;140;829;0;1668;;-146;579;-175;;103;103;73;56;-1;4;803;-203;9966;20;7;;;4
09:37:37.483;0;8;4;-1;;100;;1579;2407;1038;;-16;-127;-1;0;-9;9;;139320;153203;176128;329331;;1;105;106;172;175;;105;-87;131;-68;;73;-80;136;-68;;410;-345;476;-298;;386;-316;415;-270;1387;6930;530;;478;396;602;181;;301;212;666;66;1246;-491;-27267;19364;-1091;1743;30;-84;1;;94;106;145;;-140;-9;-395;870;1233;108;-408;219;;0;0;0;0;0;0;0;0;;-204;-39;-502;1503;1969;226;-492;122;;2373;0;;0;0;0;0;-532;606;-1876;0;0;0;0;0;0;0;0;0;0;0;-84;4030;;1139;2223;3169;73784;55611;49;65;65;73;100;1139;105;-1;;0;98;39;86;25;974;-7;13;-8;282;1798;2693;-23;40;-27;-30;-19;-6;186;;-187;-27;-512;;-130;723;-198;;50;0;140;870;0;1503;;-155;544;-182;;102;102;-41;35;-1;5;842;-126;9964;22;7;;;5
09:37:37.584;0;8;4;-1;;100;;1579;2407;1038;;-14;-111;0;0;-9;7;;139850;154077;176910;330987;;1;106;116;173;175;;106;-88;125;-74;;99;-68;122;-71;;329;-272;410;-213;;282;-249;343;-192;1065;-12627;-2404;;357;338;386;308;;235;156;366;122;880;-213;-62197;8863;-2488;798;29;-86;1;;100;100;151;;-140;-255;-395;917;1232;102;-383;217;;0;0;0;0;0;0;0;0;;-204;-255;-576;2010;1969;295;-556;74;;2926;0;;0;0;0;0;-297;-60;-2391;0;0;0;0;0;0;0;0;0;0;0;-86;4316;;1139;2223;3169;73784;55611;49;65;65;73;100;1139;105;-1;;0;98;39;93;-9;971;7;-34;-3;1214;1864;2733;5;45;-22;-34;-23;-28;187;;-127;-225;-655;;-113;460;-199;;50;0;140;917;0;2010;;-138;281;-183;;102;105;47;37;-1;5;930;-156;9955;24;9;;;6
09:37:37.687;0;8;4;-1;;100;;1579;2407;1038;;-7;-45;0;0;-9;3;;140403;154773;177604;332376;;1;116;74;178;166;;115;-97;123;-92;;54;-79;49;-76;;332;-276;392;-232;;305;-247;368;-203;1065;-12627;-2404;;161;377;165;424;;90;179;113;184;880;-213;-62197;8863;-2488;798;29;-86;1;;105;95;151;;-140;144;-395;875;1230;94;-393;217;;0;0;0;0;0;0;0;0;;-242;255;-576;2342;1971;395;-584;74;;2926;0;;0;0;0;0;-169;-2119;-2910;0;0;0;0;0;0;0;0;0;0;0;-86;4316;;1139;2223;3169;73784;55611;49;65;65;73;100;1139;105;-1;;0;98;39;95;-10;964;24;8;-15;865;2006;2232;-2;-32;-5;-57;-8;-12;190;;9;-581;-560;;-108;789;-199;;50;0;140;875;0;2342;;-145;534;-175;;102;102;-157;58;-1;8;1265;-145;9919;34;16;;;7
09:37:37.794;0;8;4;-1;;100;;1579;2407;1038;;-1;14;0;0;-9;-2;;140955;155310;178193;333503;;1;74;74;180;161;;72;-62;67;-68;;54;-79;49;-76;;332;-276;392;-232;;305;-247;368;-203;1123;-13188;-5028;;161;377;165;424;;90;179;113;184;566;-181;-54390;-4429;-2176;-399;22;-155;1;;105;95;165;;-140;19;-395;899;1229;87;-411;219;;0;0;0;0;0;0;0;0;;-242;216;-576;2087;1972;397;-565;42;;3216;0;;0;0;0;0;193;-2121;-2499;0;0;0;0;0;0;0;0;0;0;0;-155;4343;;1139;2223;3169;73784;55611;49;65;65;73;100;1139;105;-1;;0;98;39;125;-17;984;-8;-4;-12;224;2247;1973;99;18;-6;30;2;1;192;;53;-46;-316;;-154;490;-192;;50;0;140;899;0;2087;;-191;235;-168;;103;108;206;84;-1;8;1335;-133;9910;34;18;;;8
09:37:37.894;0;8;4;-1;;100;;1579;2407;1038;;0;24;0;0;-9;-8;;141343;155848;178781;334629;;1;74;42;181;165;;71;-63;52;-81;;49;-56;29;-60;;225;-194;210;-288;;211;-177;209;-268;1226;8041;-4472;;329;342;286;573;;118;142;50;207;679;-48;-38217;-14749;-1529;-1327;24;-104;1;;112;88;89;;-140;28;-395;856;1227;81;-395;218;;0;0;0;0;0;0;0;0;;-255;-255;-683;2817;1977;525;-658;66;;2986;0;;0;0;0;0;234;-429;-1919;0;0;0;0;0;0;0;0;0;0;0;-104;4520;;1139;2223;3169;73784;55611;49;65;65;73;100;1139;105;-1;;0;98;39;129;-12;995;-28;-6;4;836;1119;1980;37;1;23;71;-21;15;194;;120;354;-310;;-162;657;-199;;50;0;140;856;0;2817;;-196;424;-177;;108;109;79;89;0;7;1248;-71;9922;32;15;;;9
09:37:37.997;0;8;4;-1;;100;;1579;2407;1038;;-0;19;0;0;-9;-9;;141731;156519;179641;336160;;1;42;56;179;154;;40;-35;29;-45;;49;-56;29;-68;;225;-194;163;-254;;192;-167;146;-218;786;-16881;-10419;;371;366;293;411;;169;165;100;197;442;-151;-18075;-23201;-723;-2088;24;-84;1;;91;109;21;;-140;255;-395;815;1225;76;-416;220;;0;0;0;0;0;0;0;0;;-254;-255;-720;2848;1983;585;-671;20;;3672;0;;0;0;0;0;323;398;-1081;0;0;0;0;0;0;0;0;0;0;0;-84;4899;;1139;2223;3169;73784;55611;49;65;65;73;100;1139;105;-1;;0;98;39;39;5;990;41;33;49;5171;5552;1949;-132;9;-15;-14;12;-5;196;;-15;-24;-52;;-131;681;-212;;50;0;140;815;0;2848;;-175;385;-183;;107;108;-16;56;-1;6;868;-63;9962;25;7;;;10
09:37:38.106;0;8;4;-1;;100;;1579;2407;1038;;-4;-12;0;0;-9;-9;;142090;157190;180196;337386;;1;56;20;175;154;;55;-48;41;-60;;79;-75;62;-84;;222;-197;163;-254;;192;-167;146;-218;723;-25133;-10213;;371;366;293;411;;169;165;100;197;631;46;-6216;-29175;-249;-2626;30;8;1;;98;102;-72;;-140;255;-395;815;1225;76;-416;222;;0;0;0;0;0;0;0;0;;-255;-255;-720;2848;1983;585;-671;20;;3663;0;;0;0;0;0;315;563;-856;0;0;0;0;0;0;0;0;0;0;0;8;5105;;1139;2223;3169;67324;57332;49;65;65;73;100;1139;105;-1;;0;98;39;95;-8;978;-72;-6;-18;5544;9671;1748;40;14;8;-9;11;3;198;;-6;201;-132;;-138;618;-211;;50;0;140;815;0;2848;;-182;321;-182;;107;109;41;31;0;5;928;-51;9957;24;8;;;11
09:37:38.193;0;8;4;-1;;100;;1579;2407;1038;;-10;-71;0;0;-9;-2;;142309;157927;180901;338828;;1;20;20;174;154;;19;-16;20;-17;;33;-44;46;-48;;125;-109;90;-141;;120;-99;79;-132;430;-17768;-18886;;177;182;148;285;;63;72;54;107;296;-307;-5882;-31507;-235;-2836;26;-43;1;;109;91;-53;;-140;176;-395;931;1224;74;-402;216;;0;0;0;0;0;0;0;0;;-255;-255;-717;2650;1987;581;-680;20;;3581;0;;0;0;0;0;45;260;-357;0;0;0;0;0;0;0;0;0;0;0;-43;4372;;1058;2169;3309;67324;57332;54;64;65;72;102;1058;107;-1;;0;98;39;116;16;987;218;24;60;51700;24059;3660;-46;6;-30;-103;21;-27;200;;-47;-43;15;;-160;717;-206;;50;0;140;931;0;2650;;-202;432;-179;;108;109;-2;15;0;3;665;-12;9978;14;4;;;12
09:37:38.295;0;8;4;-1;;100;;1579;2407;1038;;-11;-81;0;0;-9;1;;142580;158285;181334;339619;;1;20;20;168;155;;19;-16;20;-16;;63;-57;51;-80;;172;-150;128;-188;;146;-125;106;-154;531;-9607;-17450;;385;353;223;541;;133;114;67;236;549;115;-4062;-22067;-162;-1986;32;61;1;;102;98;-48;;-140;-255;-395;675;1222;94;-382;230;;0;0;0;0;0;0;0;0;;-255;-255;-720;2414;1989;546;-680;35;;3089;0;;0;0;0;0;-67;294;-358;0;0;0;0;0;0;0;0;0;0;0;61;4591;;1058;2169;3309;67324;57332;54;64;65;72;102;1058;107;-1;;0;98;39;128;0;979;-71;-9;-15;5347;22198;5526;147;13;28;18;21;-5;202;;-65;117;-100;;-164;709;-201;;50;0;140;675;0;2414;;-201;458;-176;;108;109;59;23;0;5;963;-16;9953;23;9;;;13
09:37:38.398;0;8;4;-1;;100;;1579;2255;1023;;-11;-83;0;0;-9;2;;142657;159023;182097;341120;;1;20;29;174;163;;19;-16;21;-16;;41;-23;34;-29;;59;-50;62;-53;;37;-40;48;-35;161;-13471;-14417;;167;136;136;250;;60;38;36;83;218;-337;-5297;-15834;-212;-1425;37;137;1;;112;88;13;;-140;255;-395;918;1221;90;-415;217;;0;0;0;0;0;0;0;0;;-255;-255;-720;2316;1990;506;-689;44;;3233;0;;0;0;0;0;-158;187;-205;0;0;0;0;0;0;0;0;0;0;0;137;3923;;1058;2169;3309;67324;57332;54;64;65;72;102;1058;107;-1;;0;98;39;46;3;983;34;13;32;2349;16145;13293;-131;-18;-20;32;14;7;204;;25;-174;8;;-166;592;-205;;50;0;140;918;0;2316;;-203;338;-181;;107;110;3;25;0;4;717;-26;9974;20;5;;;14
09:37:38.494;0;8;4;-1;;100;;1579;2255;1023;;-11;-82;0;0;-9;2;;142742;159326;182483;341810;;1;29;38;172;163;;28;-24;30;-22;;38;-26;38;-34;;59;-50;62;-50;;43;-41;47;-37;168;-18132;-13790;;208;127;138;194;;51;24;33;49;158;-170;-10243;-9375;-410;-844;31;-2;1;;100;100;10;;-140;-66;-395;836;1219;83;-404;221;;0;0;0;0;0;0;0;0;;-255;-255;-720;2247;1992;467;-686;51;;3082;0;;0;0;0;0;-105;294;-189;0;0;0;0;0;0;0;0;0;0;0;-2;3749;;1058;2169;3309;67324;57332;54;64;65;72;102;1058;107;-1;;0;98;39;130;1;964;-27;-7;-15;1003;7080;14110;60;8;-1;25;6;-7;206;;-21;-1;-24;;-131;556;-206;;50;0;140;836;0;2247;;-167;312;-183;;108;110;-2;23;0;5;963;-6;9954;23;9;;;15
09:37:38.595;0;8;4;-1;;100;;1579;2255;1023;;-11;-81;0;0;-9;2;;142880;159661;182815;342476;;1;38;46;174;167;;37;-32;40;-30;;33;-35;41;-36;;87;-75;94;-69;;76;-62;79;-56;272;5567;-6788;;254;174;225;244;;52;35;52;53;193;-41;-5988;-6887;-240;-620;27;-82;1;;105;95;23;;-140;-213;-395;760;1217;82;-392;225;;0;0;0;0;0;0;0;0;;-255;-255;-720;2112;1992;432;-690;64;;2871;0;;0;0;0;0;-6;112;-79;0;0;0;0;0;0;0;0;0;0;0;-82;3769;;1058;2169;3309;67324;57332;54;64;65;72;102;1058;107;-1;;0;98;39;140;4;961;56;3;-15;3370;4269;15499;46;-2;-19;94;0;6;208;;-8;92;-55;;-155;568;-206;;50;0;140;760;0;2112;;-188;340;-184;;109;111;60;14;0;5;1030;12;9947;24;10;;;16
09:37:38.698;0;8;4;-1;;100;;1579;2255;1023;;-12;-84;0;0;-9;2;;143068;160089;183285;343373;;1;46;57;174;167;;45;-38;49;-36;;49;-30;46;-43;;116;-100;125;-94;;98;-91;109;-78;376;10367;-1993;;270;234;293;255;;76;42;77;65;260;101;-6041;-5193;-242;-467;26;-75;1;;104;96;30;;-140;-159;-395;711;1215;86;-390;228;;0;0;0;0;0;0;0;0;;-254;-255;-720;2004;1992;402;-688;74;;2715;0;;0;0;0;0;-29;42;-142;0;0;0;0;0;0;0;0;0;0;0;-75;3768;;1058;2169;3309;67324;57332;54;64;65;72;102;1058;107;-1;;0;98;39;119;2;965;19;-6;-3;406;1741;14789;-2;4;-2;-10;3;-18;210;;-20;59;-63;;-166;552;-199;;50;0;140;711;0;2004;;-198;336;-178;;110;112;31;8;0;6;1062;16;9943;26;11;;;17
09:37:38.790;0;8;4;-1;;100;;1579;2255;1023;;-10;-67;0;0;-9;3;;143292;160593;183833;344426;;1;57;67;176;171;;56;-47;62;-43;;48;-48;56;-37;;141;-119;153;-112;;123;-101;132;-101;457;9227;7991;;332;244;357;275;;94;66;115;63;338;264;3430;-4413;137;-397;27;-44;1;;105;95;32;;-140;-167;-395;692;1213;90;-394;229;;0;0;0;0;0;0;0;0;;-254;-255;-720;1968;1992;375;-687;78;;2660;0;;0;0;0;0;-81;155;-276;0;0;0;0;0;0;0;0;0;0;0;-44;3868;;1058;2169;3309;67324;57332;54;64;65;72;102;1058;107;-1;;0;98;39;115;6;991;-10;3;34;1265;1361;13334;-10;0;20;69;8;6;212;;-36;43;-77;;-143;580;-193;;50;0;140;692;0;1968;;-174;368;-173;;110;111;-35;24;0;6;1104;16;9939;28;12;;;18
09:37:38.898;0;8;4;-1;;100;;1579;2255;1023;;-11;-74;0;0;-9;1;;143578;161169;184465;345634;;1;67;73;177;169;;66;-56;69;-55;;51;-48;67;-54;;175;-147;194;-134;;156;-130;169;-114;569;9698;9871;;396;273;505;312;;119;78;191;96;484;474;7982;-1808;319;-163;29;9;1;;110;90;54;;-140;255;-395;917;1212;91;-427;217;;0;0;0;0;0;0;0;0;;-254;-255;-717;1838;1991;358;-684;90;;2755;0;;0;0;0;0;-71;113;-464;0;0;0;0;0;0;0;0;0;0;0;9;4241;;1058;2169;3309;67324;57332;54;64;65;72;102;1058;107;-1;;0;98;39;124;1;993;0;8;26;740;668;9254;4;-5;26;-11;-6;11;214;;-1;59;-169;;-161;666;-204;;50;0;140;917;0;1838;;-191;455;-185;;107;108;-136;32;0;6;1153;-2;9933;29;13;;;19
09:37:38.998;0;8;4;-1;;100;;1579;2255;1023;;-10;-60;0;0;-9;2;;143910;161838;185282;347120;;1;73;83;177;169;;73;-61;79;-58;;73;-52;65;-61;;207;-175;216;-172;;178;-154;191;-146;669;10600;9870;;395;252;470;321;;167;81;189;116;553;229;9448;-170;378;-15;29;-3;1;;110;90;46;;-140;255;-395;1093;1211;124;-407;207;;0;0;0;0;0;0;0;0;;-253;-255;-717;1882;1991;336;-686;86;;2974;0;;0;0;0;0;-126;-77;-651;0;0;0;0;0;0;0;0;0;0;0;-3;4413;;1058;2169;3309;67324;57332;54;64;65;72;102;1058;107;-1;;0;98;39;107;7;972;-55;-3;-16;3290;1534;4043;9;8;-7;27;2;17;216;;-74;-39;-146;;-172;710;-199;;50;0;140;1093;0;1882;;-204;486;-179;;107;107;-26;23;0;7;1247;7;9922;33;15;;;20
09:37:39.093;0;8;4;-1;;100;;1579;2255;1023;;-12;-77;0;0;-9;1;;144282;162485;186073;348558;;1;83;85;180;165;;82;-70;85;-69;;70;-51;85;-57;;229;-191;247;-181;;200;-171;212;-159;743;8665;9465;;392;231;501;292;;169;75;249;106;599;173;8921;2842;357;256;28;-14;1;;112;88;52;;-140;255;-395;917;1210;116;-417;217;;0;0;0;0;0;0;0;0;;-253;-255;-714;1837;1990;317;-687;90;;2754;0;;0;0;0;0;-262;-311;-818;0;0;0;0;0;0;0;0;0;0;0;-14;4172;;885;2011;3349;56113;49058;55;63;65;72;104;885;107;-1;;0;98;39;137;-2;958;36;-20;-52;4400;2316;2395;-14;1;-19;14;3;17;218;;-115;-81;-156;;-167;532;-199;;50;0;140;917;0;1837;;-197;321;-180;;109;111;166;52;0;7;1301;-20;9915;32;17;;;21
09:37:39.205;0;8;4;-1;;100;;1579;2255;1023;;-11;-72;0;0;-8;4;;144701;163109;186867;349976;;1;85;88;179;169;;84;-72;96;-63;;83;-54;85;-59;;257;-219;266;-216;;222;-198;233;-193;846;8831;9506;;401;265;466;323;;199;86;246;115;646;180;7306;3919;292;353;28;-38;1;;108;92;39;;-140;-63;-395;823;1208;108;-407;217;;0;0;0;0;0;0;0;0;;-252;-255;-714;1761;1989;304;-691;90;;2584;0;;0;0;0;0;-548;-539;-783;0;0;0;0;0;0;0;0;0;0;0;-38;4040;;885;2011;3349;56113;49058;55;63;65;72;104;885;109;-1;;0;98;39;119;5;1018;-12;0;27;873;2268;1498;22;-7;29;0;5;29;220;;-133;-171;-133;;-178;538;-212;;50;0;140;823;0;1761;;-207;338;-194;;110;112;48;25;-1;8;1344;-70;9909;35;18;;;22
09:37:39.305;0;8;4;-1;;100;;1579;2255;1023;;-10;-61;0;0;-8;3;;145138;163775;187655;351431;;1;88;89;181;169;;87;-75;97;-69;;86;-51;98;-71;;263;-225;301;-197;;229;-208;259;-168;864;6058;7656;;423;232;479;271;;220;76;282;118;696;204;5165;6528;207;588;28;-6;1;;107;93;91;;-140;220;-395;1022;1208;113;-390;211;;0;0;0;0;0;0;0;0;;-252;-255;-711;1755;1988;290;-692;98;;2776;0;;0;0;0;0;-491;-920;-879;0;0;0;0;0;0;0;0;0;0;0;-6;4180;;885;2011;3349;56113;49058;55;63;65;72;104;885;109;-1;;0;98;39;121;-4;988;12;19;18;829;2093;1747;-22;-13;16;-13;-10;10;222;;10;-335;-206;;-184;520;-199;;50;0;140;1022;0;1755;;-214;311;-180;;111;114;63;10;-1;9;1435;-109;9896;38;20;;;23
09:37:39.403;0;8;4;-1;;100;;1579;2197;1066;;-10;-58;0;0;-8;2;;145589;164429;188405;352834;;1;89;95;183;169;;89;-76;95;-72;;82;-68;102;-81;;272;-235;304;-216;;241;-210;264;-181;895;2496;5743;;464;283;550;305;;233;111;334;146;824;436;6379;7452;255;671;30;78;1;;107;93;84;;-140;4;-395;854;1206;104;-397;220;;0;0;0;0;0;0;0;0;;-251;-255;-711;1804;1987;271;-694;93;;2658;0;;0;0;0;0;-91;-1480;-869;0;0;0;0;0;0;0;0;0;0;0;78;4261;;885;2011;3349;56113;49058;55;63;65;72;104;885;109;-1;;0;98;39;146;-9;980;30;-5;-20;1325;1277;1475;24;-4;-18;-4;-23;4;224;;58;-354;-116;;-173;568;-205;;50;0;140;854;0;1804;;-203;363;-186;;113;114;15;24;0;9;1586;-62;9873;40;24;;;24
09:37:39.502;0;8;4;-1;;100;;1579;2197;1066;;-10;-54;0;0;-8;2;;146036;165177;189260;354437;;1;95;93;184;171;;94;-81;100;-77;;95;-80;103;-86;;279;-238;298;-225;;242;-205;260;-185;892;1420;3490;;469;315;717;298;;268;147;433;156;1004;442;9874;8221;395;740;34;213;1;;113;87;74;;-140;-121;-395;817;1204;98;-399;220;;0;0;0;0;0;0;0;0;;-250;-255;-708;1703;1986;260;-689;93;;2520;0;;0;0;0;0;513;-1854;-763;0;0;0;0;0;0;0;0;0;0;0;213;4320;;885;2011;3349;56113;49058;55;63;65;72;104;885;109;-1;;0;98;39;121;-8;996;1;4;46;2133;1208;1794;2;-6;-14;8;-21;-15;226;;204;-402;-157;;-178;598;-186;;50;0;140;817;0;1703;;-206;404;-168;;111;112;-71;30;0;10;1662;22;9861;44;27;;;25
09:37:39.603;0;8;4;-1;;100;;1579;2197;1066;;-10;-58;0;0;-8;2;;146525;165962;190275;356237;;1;93;93;186;173;;92;-80;98;-77;;83;-70;102;-79;;294;-254;313;-241;;262;-227;274;-209;892;1420;3490;;419;361;784;365;;226;155;483;174;1004;442;9874;8221;395;740;34;213;2;;119;81;74;;-140;255;-395;1001;1204;100;-405;222;;0;0;0;0;0;0;0;0;;-250;-255;-705;1681;1984;250;-685;103;;2520;0;;0;0;0;0;993;-1907;-489;0;0;0;0;0;0;0;0;0;0;0;213;4320;;885;2011;3349;56113;49058;55;63;65;72;104;885;109;-1;;0;98;39;170;-12;958;24;-4;-50;3092;1781;1740;30;-1;6;34;-11;-20;228;;269;-356;-40;;-214;574;-179;;50;0;140;1001;0;1681;;-242;380;-161;;111;113;45;33;1;11;1837;120;9829;46;32;;;26
09:37:39.708;0;8;4;-1;;100;;1579;2197;1066;;-10;-51;0;0;-8;2;;147011;166741;191423;358165;;1;93;99;187;170;;93;-80;99;-75;;71;-76;103;-75;;291;-250;310;-235;;266;-220;272;-206;972;3832;2815;;386;321;717;366;;181;152;463;171;1037;157;10897;8378;436;754;33;111;2;;121;79;65;;-140;255;-395;974;1203;97;-406;212;;0;0;0;0;0;0;0;0;;-249;-255;-705;1637;1983;242;-684;105;;2682;0;;0;0;0;0;1335;-1750;-508;0;0;0;0;0;0;0;0;0;0;0;111;4610;;885;2011;3349;56113;49058;55;63;65;72;104;885;109;-1;;0;98;39;151;5;988;-20;-7;38;1893;1706;1870;34;18;-30;54;18;-10;230;;313;-270;-155;;-208;556;-186;;50;0;140;974;0;1637;;-237;355;-168;;113;115;91;26;2;12;1911;255;9812;49;35;;;27
09:37:39.815;0;8;4;-1;;100;;1579;2197;1066;;-10;-55;0;0;-8;2;;147499;167449;192507;359955;;1;99;103;189;171;;98;-85;103;-82;;76;-72;97;-73;;291;-250;310;-235;;264;-224;274;-209;970;3623;2784;;371;342;587;377;;176;152;374;170;873;-236;7546;7575;24;534;30;-27;2;;115;85;65;;-140;43;-395;798;1201;96;-396;214;;0;0;0;0;0;0;0;0;;-248;-255;-703;1645;1981;231;-689;109;;2442;0;;0;0;0;0;1635;-1504;-611;0;0;0;0;0;0;0;0;0;0;0;51;4401;;885;2011;3349;56113;49058;55;63;65;72;104;885;109;-1;;0;98;39;168;20;938;-10;18;-42;2188;1723;1776;1;22;-4;56;24;-30;232;;405;-245;-211;;-203;574;-186;;50;0;140;798;0;1645;;-231;378;-169;;114;115;11;21;3;12;2002;411;9789;50;39;;;28
09:37:39.921;0;8;4;-1;;100;;1579;2197;1066;;-10;-57;0;0;-8;2;;148009;168161;193470;361631;;1;103;107;190;174;;102;-88;110;-82;;82;-74;98;-65;;307;-266;323;-257;;272;-238;283;-232;970;-88;2222;;330;379;488;362;;169;169;312;151;873;-236;609;5930;24;534;30;-27;1;;109;91;65;;-140;255;-395;999;1200;95;-419;223;;0;0;0;0;0;0;0;0;;-247;-255;-700;1556;1979;227;-687;109;;2442;0;;0;0;0;0;1806;-1182;-980;0;0;0;0;0;0;0;0;0;0;0;-27;4118;;885;2011;3349;56113;49058;55;63;65;72;104;885;109;-1;;0;98;39;188;35;982;7;7;28;882;1251;1500;31;34;-15;63;46;-14;234;;362;-157;-256;;-226;686;-186;;50;0;140;999;0;1556;;-253;498;-169;;113;114;-29;18;4;12;2043;558;9773;50;42;;;29
09:37:40.038;0;8;4;-1;;100;;1579;2197;1066;;-10;-50;0;0;-8;2;;148550;168870;194320;363190;;1;107;108;190;172;;106;-91;115;-86;;63;-74;88;-57;;320;-276;345;-257;;293;-248;311;-235;1026;3051;2652;;239;367;431;249;;109;169;250;100;801;-272;-5691;4216;-228;379;28;-123;1;;106;94;51;;-140;-255;-395;592;1198;135;-385;212;;0;0;0;0;0;0;0;0;;-246;-216;-697;1606;1977;216;-686;117;;2554;0;;0;0;0;0;1730;-701;-1362;0;0;0;0;0;0;0;0;0;0;0;-123;4114;;885;2011;3349;56113;49058;55;63;65;72;104;885;109;-1;;0;98;39;187;34;939;-2;-4;-42;1784;699;1371;11;14;-38;31;52;-20;237;;253;98;-375;;-232;669;-205;;50;0;140;592;0;1606;;-257;495;-188;;113;114;91;39;4;11;2001;688;9774;48;42;;;30
09:37:40.112;0;8;4;-1;;100;;1579;2197;1066;;-10;-50;0;0;-6;4;;149090;169477;195000;364476;;1;108;113;189;178;;108;-96;122;-84;;63;-74;88;-57;;320;-276;345;-257;;293;-248;311;-235;1086;5795;2893;;239;367;431;249;;109;169;250;100;628;-503;-9831;1633;-393;147;24;-288;1;;106;94;76;;-140;-255;-395;592;1198;135;-385;234;;0;0;0;0;0;0;0;0;;-245;-216;-697;1606;1977;216;-686;112;;2198;0;;0;0;0;0;1447;45;-1624;0;0;0;0;0;0;0;0;0;0;0;-288;3485;;728;1909;3430;50049;46928;64;69;67;73;108;728;109;-1;;0;98;39;180;57;975;-15;11;47;2555;1112;1436;-4;21;-27;27;50;-13;238;;206;209;-309;;-227;508;-199;;50;0;140;592;0;1606;;-252;334;-182;;114;116;15;27;4;11;1903;724;9791;47;39;;;31
09:37:40.212;0;8;4;-1;;100;;1579;2197;1066;;-10;-53;0;0;-6;4;;149689;170083;195679;365763;;1;113;112;188;178;;113;-101;128;-89;;43;-71;115;-50;;338;-301;382;-263;;324;-275;335;-240;1174;7420;5347;;194;428;616;170;;63;184;401;62;710;-6;-7567;-286;-303;-26;25;-149;2;;112;88;95;;-140;-18;-395;712;1196;133;-402;228;;0;0;0;0;0;0;0;0;;-244;-255;-694;1439;1975;222;-681;128;;2150;0;;0;0;0;0;1115;1036;-1555;0;0;0;0;0;0;0;0;0;0;0;-149;3558;;728;1909;3430;50049;46928;64;69;67;73;108;728;114;-1;;0;98;39;210;41;948;22;-14;-17;969;1161;1335;16;9;22;24;42;-11;240;;208;380;-257;;-244;597;-205;;50;0;140;712;0;1439;;-268;432;-190;;116;117;81;32;5;10;1761;734;9816;41;35;;;32
09:37:40.312;0;8;4;-1;;100;;1579;2197;1066;;-9;-41;0;0;-6;4;;150302;170705;196465;367170;;1;112;131;185;179;;112;-99;128;-87;;73;-71;101;-45;;354;-316;401;-279;;328;-286;361;-256;1231;7222;6691;;261;308;550;111;;107;145;356;37;645;-146;-5471;-2381;-219;-214;23;-173;2;;107;93;105;;-140;-136;-395;921;1195;126;-402;217;;0;0;0;0;0;0;0;0;;-241;25;-688;1281;1972;246;-688;144;;2201;0;;0;0;0;0;1586;789;-1185;0;0;0;0;0;0;0;0;0;0;0;-173;3431;;728;1909;3430;50049;46928;64;69;67;73;108;728;114;-1;;0;98;39;132;60;1021;1;-6;62;3881;2912;1333;-61;7;34;-41;32;22;242;;502;-211;-238;;-224;442;-206;;50;0;140;921;0;1281;;-247;281;-192;;116;119;92;44;6;10;1648;956;9817;43;34;;;33
09:37:40.412;0;8;4;-1;;100;;1580;2038;1141;;-8;-28;0;0;-6;3;;150906;171274;197126;368400;;1;131;139;186;178;;131;-116;144;-106;;66;-90;113;-38;;351;-310;401;-272;;326;-277;359;-260;1222;2387;5367;;237;415;530;140;;99;214;368;34;715;119;-1561;-3766;-62;-339;24;-87;1;;101;99;100;;-140;-60;-395;863;1193;116;-407;220;;0;0;0;0;0;0;0;0;;-241;-163;-680;1137;1969;279;-677;157;;2000;0;;0;0;0;0;1668;-52;-1318;0;0;0;0;0;0;0;0;0;0;0;-87;3322;;728;1909;3430;50049;46928;64;69;67;73;108;728;114;-1;;0;98;39;196;97;940;40;50;-32;5124;4021;1097;-1;37;-1;-32;38;14;244;;48;-145;-306;;-238;478;-206;;50;0;140;863;0;1137;;-258;333;-194;;119;121;114;32;6;10;1780;992;9790;43;39;;;34
09:37:40.535;0;8;4;-1;;100;;1580;2038;1141;;-6;-5;0;0;-6;2;;151625;171926;197795;369722;;1;139;150;186;182;;138;-123;147;-117;;43;-78;94;-67;;410;-363;451;-332;;394;-326;413;-300;1432;10049;7386;;212;312;490;214;;65;163;302;78;608;-342;-363;-4903;-15;-441;21;-192;2;;115;85;113;;-140;-173;-395;937;1192;111;-402;220;;0;0;0;0;0;0;0;0;;-239;-90;-680;1368;1966;265;-676;157;;2305;0;;0;0;0;0;506;-793;-1621;0;0;0;0;0;0;0;0;0;0;0;-192;3532;;728;1909;3430;50049;46928;64;69;67;73;108;728;114;-1;;0;98;39;185;96;967;-71;4;-11;5178;4480;1840;82;47;-41;18;50;21;246;;-329;-6;-327;;-238;487;-206;;50;0;140;937;0;1368;;-262;317;-191;;119;121;-39;39;5;12;1993;855;9762;49;44;;;35
09:37:40.633;0;8;4;-1;;100;;1580;2038;1141;;0;64;0;0;-6;-5;;152344;172449;198499;370948;;1;150;154;188;177;;147;-135;121;-161;;43;-78;94;-67;;410;-363;451;-332;;394;-326;413;-300;1432;10049;7386;;212;312;490;214;;65;163;302;78;608;-342;-363;-4903;-15;-441;21;-192;2;;115;85;113;;-140;-173;-395;937;1192;111;-402;216;;0;0;0;0;0;0;0;0;;-237;-90;-680;1368;1966;265;-676;135;;2305;0;;0;0;0;0;-1191;-4;-1680;0;0;0;0;0;0;0;0;0;0;0;-192;3532;;728;1909;3430;50049;46928;64;69;67;73;108;728;114;-1;;0;98;39;184;67;1002;5;-34;49;3582;3842;2349;-40;-20;40;23;45;13;248;;-281;279;-359;;-256;388;-206;;50;0;140;937;0;1368;;-280;218;-191;;121;125;187;53;4;10;1811;647;9813;45;35;;;36
09:37:40.713;0;8;4;-1;;100;;1580;2038;1141;;0;59;0;0;-6;-6;;153095;172973;199202;372175;;1;154;135;187;177;;152;-139;126;-164;;84;-86;114;-63;;432;-385;461;-367;;400;-351;416;-342;1432;10049;7386;;297;406;458;320;;137;206;319;116;608;-342;-363;-4903;-15;-441;21;-192;1;;105;95;113;;-140;255;-395;1012;1191;113;-422;216;;0;0;0;0;0;0;0;0;;-236;-168;-674;1472;1964;245;-666;135;;2305;0;;0;0;0;0;-445;173;-1811;0;0;0;0;0;0;0;0;0;0;0;-192;3532;;728;1909;3430;50049;46928;64;69;67;73;108;728;114;-1;;0;98;39;123;38;968;-51;-2;-24;3181;2625;3199;-52;-71;16;13;-15;3;250;;472;-336;-435;;-244;436;-193;;50;0;140;1012;0;1472;;-270;253;-177;;123;126;23;50;5;11;1770;738;9814;47;35;;;37
09:37:40.814;0;8;4;-1;;100;;1580;2038;1141;;0;62;0;0;-6;-6;;153906;173676;199981;373656;;1;135;135;188;174;;133;-122;112;-142;;128;-112;89;-255;;476;-436;395;-514;;420;-391;370;-425;1509;14370;8713;;420;549;452;804;;294;346;263;1039;777;412;963;-3652;39;-329;23;-75;2;;113;87;73;;-140;255;-395;845;1190;105;-401;212;;0;0;0;0;0;0;0;0;;-234;-255;-669;1432;1962;228;-653;125;;2484;0;;0;0;0;0;1094;-557;-1767;0;0;0;0;0;0;0;0;0;0;0;-75;3966;;728;1909;3430;50049;46928;64;69;67;73;108;728;114;-1;;0;98;39;244;106;939;120;41;-43;17930;5310;3356;28;41;-54;-22;-9;4;252;;248;-238;-138;;-250;622;-205;;50;0;140;845;0;1432;;-274;451;-190;;123;122;-112;61;5;11;1971;964;9756;45;44;;;38
09:37:40.914;0;8;4;-1;;100;;1580;2038;1141;;-7;-27;0;0;-6;-6;;154614;174645;201237;375882;;1;135;125;187;177;;133;-122;110;-144;;105;-104;46;-140;;417;-382;351;-445;;373;-335;344;-380;1605;8682;10366;;471;349;271;773;;304;249;114;745;1943;2637;26579;4451;1063;401;35;317;2;;112;88;-55;;-140;255;-395;1011;1189;106;-414;221;;0;0;0;0;0;0;0;0;;-233;-255;-666;842;1958;303;-650;129;;2276;0;;0;0;0;0;933;-904;-1417;0;0;0;0;0;0;0;0;0;0;0;317;4501;;728;1909;3430;50049;46928;64;69;67;73;108;728;114;-1;;0;98;39;187;91;994;-57;-27;54;6894;5815;3482;99;64;4;-6;9;-11;254;;-264;-22;-255;;-239;526;-205;;50;0;140;1011;0;842;;-263;355;-190;;121;122;-24;51;5;12;2036;923;9747;50;46;;;39
09:37:41.019;0;8;4;-1;;100;;1580;2038;1141;;-11;-70;0;0;-6;1;;155322;175466;202281;377747;;1;125;128;190;184;;125;-111;139;-100;;94;-102;81;-129;;417;-382;345;-451;;378;-338;314;-400;1432;-3857;5942;;323;331;206;655;;211;217;106;568;1412;-11;27301;8091;1092;728;31;102;2;;112;88;-36;;-140;-84;-395;858;1187;99;-409;212;;0;0;0;0;0;0;0;0;;-232;-255;-666;842;1958;303;-650;186;;1852;0;;0;0;0;0;-335;-735;-1043;0;0;0;0;0;0;0;0;0;0;0;102;3717;;728;1909;3430;50049;46928;64;69;67;73;108;728;114;-1;;0;98;39;100;85;993;17;13;27;1187;7623;4473;-180;-35;54;-47;23;0;0;;-105;-304;-253;;-244;424;-193;;50;0;140;1011;0;842;;-261;298;-184;;120;122;-12;31;5;11;1770;791;9810;48;36;;;40
09:37:41.127;0;8;4;-1;;100;;1580;2038;1141;;-12;-81;0;0;-6;5;;156038;176286;203326;379612;;1;128;147;189;187;;128;-113;152;-92;;94;-102;81;-129;;417;-382;345;-451;;378;-338;314;-400;1430;-8756;-801;;323;331;206;655;;211;217;106;568;1102;-136;16242;8878;650;799;28;2;2;;114;86;-86;;-140;255;-395;754;1186;102;-412;220;;0;0;0;0;0;0;0;0;;-230;-255;-655;1111;1951;316;-630;185;;1707;0;;0;0;0;0;-992;-829;-1360;0;0;0;0;0;0;0;0;0;0;0;2;3223;;693;1853;3561;44806;40488;58;65;65;71;116;693;123;-1;;0;98;39;209;102;978;41;16;42;3701;6323;4474;52;14;-25;-2;47;-9;2;;-232;-61;-299;;-280;347;-193;;50;0;140;754;0;1111;;-296;228;-184;;123;127;240;66;4;11;1910;754;9787;46;40;;;41
09:37:41.227;0;8;4;-1;;100;;1580;2038;1141;;-11;-71;0;0;-1;11;;156723;176941;204187;381128;;1;147;155;188;184;;150;-141;205;-87;;73;-97;133;-70;;392;-348;436;-313;;370;-315;373;-301;1359;-3666;-4760;;356;374;512;490;;171;223;359;284;1037;-107;-3211;8553;-128;770;28;-2;2;;116;84;72;;-140;255;-395;754;1186;102;-412;226;;0;0;0;0;0;0;0;0;;-228;-255;-655;1111;1951;316;-630;160;;1865;0;;0;0;0;0;-763;-745;-1612;0;0;0;0;0;0;0;0;0;0;0;-2;3598;;693;1853;3561;44806;40488;58;65;65;71;116;693;123;-1;;0;98;39;203;76;963;26;-6;23;1241;3374;4743;86;-9;-22;1;-8;-7;4;;-153;-39;-397;;-269;412;-193;;50;0;140;754;0;1111;;-288;274;-181;;128;130;150;60;4;11;1958;699;9781;47;40;;;42
09:37:41.339;0;8;4;-1;;100;;1580;2038;1141;;-9;-42;0;0;-1;10;;157549;177671;205189;382861;;1;155;158;189;186;;157;-149;202;-105;;94;-118;255;-94;;470;-442;643;-272;;431;-395;476;-233;1366;-3202;-5516;;380;669;736;389;;207;432;1028;229;1085;-23;-20901;7051;-836;635;28;14;2;;104;96;165;;-140;-218;-395;711;1182;103;-383;224;;0;0;0;0;0;0;0;0;;-227;-54;-643;1230;1944;285;-642;173;;1762;0;;0;0;0;0;-1457;-4;-1824;0;0;0;0;0;0;0;0;0;0;0;14;3464;;693;1853;3561;44806;40488;58;65;65;71;116;693;123;-1;;0;98;39;209;67;962;7;-38;-1;1494;2029;5236;59;-17;12;110;-12;-26;7;;-592;145;-415;;-263;514;-186;;50;0;140;711;0;1230;;-284;368;-173;;122;123;-159;72;2;11;2030;371;9785;47;40;;;43
09:37:41.422;0;8;4;-1;;100;;1580;1811;1136;;-2;42;0;0;-1;2;;158415;178720;206314;385034;;1;158;159;188;183;;158;-155;159;-153;;107;-136;255;-86;;492;-467;633;-329;;453;-414;471;-292;1535;8815;1419;;420;732;877;528;;264;580;1315;271;1896;962;9509;9967;380;897;35;232;2;;110;90;243;;-140;-31;-395;773;1180;97;-405;228;;0;0;0;0;0;0;0;0;;-225;-138;-640;1172;1941;264;-634;148;;1941;0;;0;0;0;0;-2323;706;-1946;136;192;109;41;0;0;0;0;0;0;0;232;4115;;693;1853;3561;44806;40488;58;65;65;71;116;693;123;-1;;0;98;39;192;79;971;-56;14;15;3557;1739;5264;10;-14;4;121;-9;-6;8;;-639;429;-398;;-292;544;-199;;50;0;140;773;0;1172;;-313;398;-186;;122;123;-50;59;1;11;1890;274;9816;46;35;;;44
09:37:41.523;0;8;4;-1;;100;;1580;1811;1136;;-5;5;0;0;-1;1;;159282;179871;207719;387591;;1;159;148;188;183;;159;-156;164;-151;;107;-136;255;-86;;492;-467;633;-329;;453;-414;471;-292;1629;13121;5731;;420;732;877;528;;264;580;1315;271;2429;337;35136;13918;1405;1253;39;242;2;;110;90;179;;-140;-31;-395;773;1180;97;-405;225;;0;0;0;0;0;0;0;0;;-223;-138;-640;1172;1941;264;-634;154;;1945;0;;0;0;0;0;-2861;1974;-1623;518;709;418;145;0;0;0;0;0;0;0;242;4502;;693;1853;3561;44806;40488;58;65;65;71;116;693;123;-1;;0;98;39;175;35;963;-39;-23;-6;2086;1925;5103;-41;-28;6;17;-47;17;10;;-489;692;-131;;-245;419;-192;;50;0;140;773;0;1172;;-265;275;-180;;121;123;12;36;0;9;1583;61;9874;38;24;;;45
09:37:41.624;0;8;4;-1;;100;;1580;1811;1136;;-0;62;0;0;-1;4;;160177;181023;209124;390147;;1;148;152;183;183;;149;-144;172;-122;;120;-129;255;-64;;498;-489;514;-473;;454;-441;408;-435;1738;10132;10203;;656;781;908;412;;443;616;1410;185;2654;183;45779;17395;1831;1566;39;165;2;;96;104;-27;;-140;-120;-395;641;1178;109;-390;232;;0;0;0;0;0;0;0;0;;-222;35;-635;970;1937;258;-639;173;;1611;0;;0;0;0;0;-2204;2319;-965;680;923;547;187;0;0;0;0;0;0;0;165;4368;;693;1853;3561;44806;40488;58;65;65;71;116;693;123;-1;;0;98;39;120;46;1005;-75;10;10;5825;2764;3925;-65;-35;38;-41;-53;46;12;;4;258;-70;;-245;550;-186;;50;0;140;641;0;970;;-262;431;-176;;122;121;-51;48;0;8;1400;80;9901;37;19;;;46
09:37:41.744;0;8;4;-1;;100;;1580;1811;1136;;-1;57;0;0;-1;0;;161019;182460;210444;392904;;1;152;157;180;182;;151;-149;147;-153;;107;-110;255;-120;;467;-451;539;-382;;431;-411;382;-333;1558;-3532;5862;;528;519;1218;408;;369;406;1821;280;2876;171;43396;19021;1736;1712;43;198;3;;122;78;49;;-140;67;-395;802;1177;100;-393;223;;0;0;0;0;0;0;0;0;;-220;-255;-629;1207;1934;238;-617;151;;2008;0;;0;0;0;0;-641;1931;-538;649;874;519;176;0;0;0;0;0;0;0;198;4682;;693;1853;3561;44806;40488;58;65;65;71;116;693;123;-1;;0;98;39;111;21;969;1;7;-1;51;2347;2485;-85;-20;-5;-119;-75;23;14;;209;339;-122;;-262;485;-198;;50;0;140;802;0;1207;;-283;336;-185;;119;121;-40;61;1;7;1142;202;9933;29;13;;;47
09:37:41.832;0;8;4;-1;;100;;1580;1811;1136;;-0;64;0;0;-1;-1;;161864;183507;212070;395577;;1;157;151;176;179;;156;-154;155;-155;;122;-141;255;-255;;473;-467;461;-480;;430;-415;425;-409;1679;-2963;2161;;569;738;1013;638;;418;597;1645;863;3523;382;36998;22554;1480;2030;46;187;3;;112;88;17;;-140;255;-395;996;1176;113;-400;213;;0;0;0;0;0;0;0;0;;-219;-255;-626;1162;1931;220;-615;155;;2157;0;;0;0;0;0;638;1733;-579;557;745;443;150;0;0;0;233;214;203;805;187;5116;;693;1853;3561;44806;40488;58;65;65;71;116;693;123;-1;;0;98;39;206;74;930;33;34;-53;5054;3536;2321;94;33;-55;-71;-23;-6;16;;167;543;-125;;-257;496;-193;;50;0;140;779;0;1347;;-278;342;-180;;121;122;53;45;2;6;1211;433;9917;25;16;;;48
09:37:41.937;0;8;4;-1;;100;;1580;1811;1136;;-1;56;0;0;-1;-1;;162754;184814;213721;398535;;1;151;153;176;180;;150;-148;147;-151;;95;-124;108;-136;;489;-483;486;-486;;454;-436;447;-431;1768;10504;2196;;458;657;550;625;;299;523;624;594;2041;-397;916;22445;37;2020;34;-46;2;;103;97;15;;-140;255;-395;779;1174;105;-408;224;;0;0;0;0;0;0;0;0;;-217;-255;-621;1347;1929;209;-594;137;;2126;0;;0;0;0;0;1019;1521;-1119;17;23;8;6;0;0;0;204;202;202;831;-46;4418;;693;1853;3561;44806;40488;58;65;65;71;116;693;123;-1;;0;98;39;80;55;965;-63;16;-46;6341;4569;2229;-100;-2;18;-29;21;-13;19;;285;-321;-593;;-233;658;-199;;50;0;140;967;0;1347;;-257;488;-185;;115;115;-213;47;4;8;1291;639;9896;36;20;;;49
09:37:42.058;0;8;4;-1;;100;;1580;1811;1136;;-6;-15;0;0;-1;3;;163586;185930;214897;400826;;1;153;137;181;174;;154;-149;171;-133;;124;-101;121;-98;;470;-464;461;-473;;406;-425;401;-438;1671;-390;760;;353;432;318;494;;277;321;315;359;1272;-306;-35996;14488;-1440;1304;28;-147;1;;102;98;-37;;-140;255;-395;967;1173;108;-398;214;;0;0;0;0;0;0;0;0;;-216;240;-618;1475;1927;211;-620;125;;2441;0;;0;0;0;0;1145;204;-1997;0;0;0;0;0;0;0;0;0;0;0;-147;4038;;693;1853;3561;44806;40488;58;65;65;71;116;693;123;-1;;0;98;39;143;72;963;75;10;-10;5825;3894;2643;-65;32;-8;-19;39;-15;21;;380;-269;-460;;-274;531;-199;;50;0;140;967;0;1475;;-299;350;-183;;118;121;288;116;5;8;1385;813;9870;35;25;;;50
09:37:42.131;0;8;4;-1;;100;;1580;1811;1136;;-8;-32;0;0;8;16;;164461;186714;215708;402423;;1;137;125;181;174;;122;-131;190;-56;;81;-110;134;-100;;483;-467;536;-417;;451;-424;471;-387;1671;-390;760;;319;406;436;454;;183;286;353;297;1272;-306;-35996;14488;-1440;1304;28;-147;1;;110;90;-37;;-140;-183;-395;644;1171;119;-394;214;;0;0;0;0;0;0;0;0;;-216;-255;-609;1306;1924;195;-597;125;;1949;0;;0;0;0;0;1859;-1200;-2666;0;0;0;0;0;0;0;0;0;0;0;-147;4038;;722;1841;3721;48362;50454;70;67;66;70;119;722;119;-1;;0;98;39;149;35;960;6;-37;-3;1414;3809;2975;30;4;-42;-20;32;-1;22;;710;-182;-648;;-258;559;-199;;50;0;140;644;0;1306;;-283;378;-183;;119;120;57;79;6;8;1465;926;9849;39;29;;;51
09:37:42.228;0;8;4;-1;;100;;1580;1811;1136;;-6;-13;0;0;8;16;;165194;187439;216598;404038;;1;125;125;182;183;;110;-120;162;-63;;69;-105;66;-43;;382;-410;596;-175;;354;-379;565;-184;1482;-9445;-4284;;224;482;290;269;;113;308;165;117;704;-191;-65597;-9610;-2624;-865;22;-170;1;;88;112;380;;-140;-172;-395;726;1169;114;-389;232;;0;0;0;0;0;0;0;0;;-215;-145;-609;987;1921;201;-605;141;;1713;0;;0;0;0;0;2317;-1366;-2694;0;0;0;0;0;0;0;0;0;0;0;-170;2979;;722;1841;3721;48362;50454;70;67;66;70;119;722;119;-1;;0;98;39;46;96;1035;-128;10;46;18600;6033;3167;-5;33;60;-86;35;42;24;;386;-328;-317;;-251;400;-212;;50;0;140;726;0;987;;-268;275;-201;;122;124;221;48;7;10;1450;1168;9825;45;33;;;52
09:37:42.339;0;8;4;-1;;100;;1580;1811;1136;;-14;-105;0;0;8;14;;165855;188146;217157;405303;;1;125;135;185;187;;110;-121;156;-70;;56;-116;143;-39;;345;-376;508;-197;;324;-337;468;-182;1311;-21104;-11030;;147;673;722;129;;63;449;545;48;1105;43;-24385;-20102;-975;-1809;29;-22;1;;102;98;286;;-140;41;-395;721;1168;108;-395;227;;0;0;0;0;0;0;0;0;;-214;51;-607;1180;1918;186;-604;153;;1900;0;;0;0;0;0;2453;-582;-2111;0;0;0;0;0;0;0;0;0;0;0;-22;3571;;722;1841;3721;48362;50454;70;67;66;70;119;722;119;-1;;0;98;39;206;113;978;103;30;-38;12953;8163;3506;17;61;25;2;64;35;26;;324;151;-255;;-268;358;-205;;50;0;140;721;0;1180;;-288;216;-192;;127;129;233;25;8;8;1448;1287;9811;47;36;;;53
09:37:42.434;0;8;4;-1;;100;;1580;2086;1189;;-6;-7;0;0;8;22;;166516;188966;218009;406974;;1;135;146;180;183;;121;-128;204;-36;;61;-110;134;-19;;345;-379;489;-219;;321;-340;443;-211;1311;-21104;-11030;;172;648;740;120;;65;443;601;21;1105;43;-24385;-20102;-975;-1809;29;-22;1;;103;97;286;;-140;-197;-395;653;1166;109;-389;227;;0;0;0;0;0;0;0;0;;-213;-255;-604;1130;1915;174;-582;153;;1900;0;;0;0;0;0;1067;-105;-1030;0;0;0;0;0;0;0;0;0;0;0;-22;3571;;722;1841;3721;48362;50454;70;67;66;70;119;722;119;-1;;0;98;39;127;119;1002;-62;-6;4;3896;8012;4823;99;35;-34;72;75;43;28;;-158;-107;-120;;-280;472;-206;;50;0;140;653;0;1130;;-300;330;-193;;126;127;-107;80;7;9;1467;1235;9814;45;35;;;54
09:37:42.536;0;8;4;-1;;100;;1580;2086;1189;;-2;41;0;0;8;12;;167217;189786;218878;408664;;1;146;150;183;185;;128;-142;167;-100;;78;-120;255;-41;;379;-401;640;-112;;348;-353;454;-102;1257;-2682;-11188;;311;689;1236;124;;133;499;1683;29;2344;981;28758;-18951;1150;-1706;43;233;3;;115;85;352;;-140;19;-395;712;1164;102;-395;231;;0;0;0;0;0;0;0;0;;-211;-255;-601;841;1911;199;-578;158;;1553;0;;0;0;0;0;-123;-8;-636;431;575;344;116;0;0;0;0;0;0;0;233;3913;;722;1841;3721;48362;50454;70;67;66;70;119;722;119;-1;;0;98;39;127;110;954;-12;5;-26;845;3870;5940;-83;-10;-26;5;61;-1;30;;-212;-56;11;;-285;509;-206;;50;0;140;712;0;841;;-304;375;-194;;123;124;-145;45;6;9;1477;1081;9831;39;32;;;55
09:37:42.641;0;8;4;-1;;100;;1580;2086;1189;;2;93;0;0;8;8;;167964;190786;220238;411023;;1;150;155;182;189;;131;-147;161;-115;;104;-139;100;-58;;401;-445;523;-313;;362;-385;499;-286;1532;-2682;-11188;;450;792;760;378;;259;645;713;114;1732;-29;28758;-18951;1318;-1310;34;14;1;;96;104;213;;-140;-164;-395;713;1162;96;-396;228;;0;0;0;0;0;0;0;0;;-210;-255;-595;1115;1908;184;-573;186;;1827;0;;0;0;0;0;-1144;-99;48;428;575;345;116;0;0;0;0;0;0;0;233;4207;;722;1841;3721;48362;50454;70;67;66;70;119;722;119;-1;;0;98;39;141;89;949;-50;-8;-13;2733;2525;5743;32;-27;-50;31;8;-64;32;;-275;144;154;;-269;466;-206;;50;0;140;713;0;1115;;-284;355;-197;;123;124;-33;28;5;9;1493;886;9848;38;29;;;56
09:37:42.737;0;8;4;-1;;100;;1580;2086;1189;;3;107;0;0;8;6;;168757;192028;221375;413403;;1;155;158;183;185;;135;-152;164;-121;;78;-118;129;-32;;410;-461;505;-360;;381;-412;461;-347;1601;10847;456;;368;561;626;234;;194;457;543;60;1254;-208;32944;-14559;360;-915;28;-80;1;;96;104;114;;-140;-255;-395;622;1160;98;-383;228;;0;0;0;0;0;0;0;0;;-208;-255;-592;938;1904;183;-577;160;;1559;0;;0;0;0;0;-1159;548;631;0;0;0;0;0;0;0;0;0;0;0;14;3348;;722;1841;3721;48362;50454;70;67;66;70;119;722;119;-1;;0;98;39;154;90;975;-103;14;16;11061;6539;4845;48;-24;16;41;-24;-49;34;;-198;210;192;;-280;554;-206;;50;0;140;622;0;938;;-299;418;-194;;124;124;46;26;4;9;1581;777;9844;40;30;;;57
09:37:42.837;0;8;4;-1;;100;;1580;2086;1189;;5;125;0;0;8;4;;169584;192956;222235;415192;;1;158;159;183;189;;137;-155;159;-133;;80;-138;96;-107;;429;-486;498;-417;;398;-429;464;-375;1601;17195;7975;;352;562;405;465;;178;476;302;259;1254;-208;9003;-10172;360;-915;28;-80;1;;98;102;114;;-140;-205;-395;576;1158;104;-383;233;;0;0;0;0;0;0;0;0;;-207;158;-587;961;1900;175;-590;177;;1559;0;;0;0;0;0;-905;644;656;132;182;110;37;0;0;0;0;0;0;0;-80;3348;;722;1841;3721;48362;50454;70;67;66;70;119;722;119;-1;;0;98;39;118;71;973;-28;-27;26;2189;6124;4934;-63;-6;14;-5;-45;-35;36;;-155;-74;-19;;-275;334;-206;;50;0;140;576;0;961;;-291;219;-196;;127;130;299;80;4;9;1474;736;9863;39;26;;;58
09:37:42.940;0;8;4;-1;;100;;1580;2086;1189;;6;134;0;0;8;3;;170422;193870;223106;416976;;1;159;160;183;190;;138;-156;158;-136;;80;-122;105;-113;;429;-486;498;-417;;400;-438;457;-377;1666;6714;10463;;324;507;360;593;;164;402;248;384;1198;-71;-9190;275;-1124;319;27;-76;1;;107;93;80;;-140;-97;-395;692;1156;96;-397;235;;0;0;0;0;0;0;0;0;;-206;-255;-584;1144;1897;163;-556;174;;1835;0;;0;0;0;0;-1525;-58;406;0;0;0;0;0;0;0;0;0;0;0;-85;3322;;722;1841;3721;48362;50454;70;67;66;70;119;722;119;-1;;0;98;39;129;101;978;-8;7;-22;597;3276;6689;-24;7;24;-26;-13;20;38;;-736;-160;93;;-256;543;-205;;50;0;140;692;0;1144;;-272;428;-195;;124;123;-326;133;2;9;1519;536;9869;39;25;;;59
09:37:43.032;0;8;4;-1;;100;;1580;2086;1189;;6;140;0;0;8;2;;171260;194701;224059;418760;;1;160;160;184;185;;138;-157;154;-142;;80;-122;105;-113;;429;-486;498;-417;;400;-438;457;-377;1671;3506;9623;;324;507;360;593;;164;402;248;384;1198;-71;-28092;3547;-1124;319;27;-76;1;;107;93;80;;-140;-97;-395;692;1156;96;-397;229;;0;0;0;0;0;0;0;0;;-204;-255;-584;1144;1897;163;-556;157;;1835;0;;0;0;0;0;-2368;-856;423;0;0;0;0;0;0;0;0;0;0;0;-76;3620;;722;1841;3721;48362;50454;70;67;66;70;119;722;119;-1;;0;98;39;139;47;967;-16;-41;-2;1941;1454;4936;24;-22;-17;-59;-19;21;40;;-510;-169;207;;-251;586;-206;;50;0;140;692;0;1144;;-270;448;-194;;119;119;-207;60;1;10;1613;289;9865;41;26;;;60
09:37:43.133;0;8;4;-1;;100;;1580;2086;1189;;8;156;0;0;6;-2;;172118;195532;225012;420544;;1;160;157;185;185;;143;-159;141;-163;;76;-98;83;-122;;432;-492;483;-445;;404;-454;454;-398;1711;2241;4283;;287;390;281;601;;141;270;165;440;1016;-209;-14876;1725;-595;155;24;-112;1;;113;87;57;;-140;-58;-395;743;1154;89;-402;226;;0;0;0;0;0;0;0;0;;-203;-255;-581;1088;1894;150;-543;162;;1831;0;;0;0;0;0;-1786;-751;802;0;0;0;0;0;0;0;0;0;0;0;-112;3390;;779;1813;3812;51800;49646;64;66;66;68;120;779;119;-1;;0;98;39;145;29;970;-15;-11;16;602;945;3885;15;-77;-12;-49;-53;1;42;;163;-98;178;;-251;506;-204;;50;0;140;743;0;1088;;-270;371;-192;;119;120;52;67;2;10;1641;342;9859;42;27;;;61
09:37:43.233;0;8;4;-1;;100;;1580;2086;1189;;8;153;0;0;6;-2;;172972;196210;225894;422103;;1;157;159;184;182;;140;-156;137;-161;;92;-139;109;-89;;448;-498;442;-511;;410;-443;410;-479;1742;3554;3272;;269;530;431;676;;151;419;266;386;1223;117;-2612;317;-104;29;26;-49;1;;116;84;-69;;-140;255;-395;937;1153;111;-428;216;;0;0;0;0;0;0;0;0;;-202;-144;-576;1031;1891;140;-575;168;;1968;0;;0;0;0;0;1;-80;1081;0;0;0;0;0;0;0;0;0;0;0;-49;3875;;779;1813;3812;51800;49646;64;66;66;68;120;779;119;-1;;0;98;39;165;51;960;56;14;-38;4776;2024;3716;0;2;12;12;-66;4;44;;201;193;343;;-245;352;-186;;50;0;140;937;0;1031;;-264;212;-175;;123;126;316;83;3;8;1487;489;9877;36;24;;;62
09:37:43.333;0;8;4;-1;;100;;1580;2035;1163;;8;150;0;0;6;-2;;173812;197009;227001;424010;;1;159;159;182;182;;142;-158;140;-162;;102;-121;100;-129;;439;-489;429;-505;;398;-441;396;-459;1695;-770;1299;;392;485;499;572;;229;375;301;443;1347;237;2899;-3303;116;-297;28;-6;1;;110;90;-63;;-140;255;-395;1007;1153;134;-423;212;;0;0;0;0;0;0;0;0;;-201;190;-573;979;1887;134;-577;173;;1986;0;;0;0;0;0;701;585;1380;46;60;38;13;0;0;0;0;0;0;0;-6;3934;;779;1813;3812;51800;49646;64;66;66;68;120;779;119;-1;;0;98;39;144;75;965;-15;-4;-3;250;1731;3360;19;54;-16;12;-30;-18;46;;52;130;378;;-281;432;-199;;50;0;140;1007;0;979;;-300;294;-188;;122;125;-117;85;3;8;1404;627;9881;35;23;;;63
09:37:43.432;0;8;4;-1;;100;;1580;2035;1163;;8;144;0;0;6;-2;;174683;197886;228072;425958;;1;159;160;181;181;;142;-159;139;-164;;104;-89;106;-128;;445;-495;439;-508;;408;-464;399;-461;1731;-572;1039;;416;420;402;552;;260;260;271;439;1231;-69;3974;-5659;159;-509;27;-43;1;;107;93;-62;;-140;-236;-395;727;1151;125;-391;227;;0;0;0;0;0;0;0;0;;-199;103;-567;1307;1885;146;-577;141;;2033;0;;0;0;0;0;388;565;1764;61;81;52;18;0;0;0;0;0;0;0;-43;3824;;779;1813;3812;51800;49646;64;66;66;68;120;779;119;-1;;0;98;39;129;62;972;12;15;-20;769;1784;2493;-46;-4;19;-20;6;12;48;;35;-113;320;;-239;532;-200;;50;0;140;727;0;1307;;-261;378;-186;;120;121;-193;66;4;8;1362;619;9887;35;22;;;64
09:37:43.533;0;8;4;-1;;100;;1580;2035;1163;;8;139;0;0;6;-2;;175543;198723;229026;427749;;1;160;141;181;181;;143;-159;140;-164;;107;-115;113;-132;;445;-498;436;-514;;403;-457;392;-463;1715;978;-31;;434;437;449;527;;282;301;306;433;1322;154;6194;-7512;248;-676;28;-8;1;;106;94;-71;;-140;255;-395;1032;1150;142;-401;211;;0;0;0;0;0;0;0;0;;-199;-10;-561;1005;1882;138;-564;170;;2037;0;;0;0;0;0;259;9;1814;94;124;79;27;0;0;0;0;0;0;0;-8;3884;;779;1813;3812;51800;49646;64;66;66;68;120;779;119;-1;;0;98;39;141;71;967;12;-1;-18;469;800;1508;2;7;-1;-19;38;10;50;;105;-45;386;;-246;525;-192;;50;0;140;1032;0;1005;;-265;383;-181;;118;119;-72;31;4;8;1389;696;9879;35;23;;;65
09:37:43.634;0;8;4;-1;;100;;1580;2035;1163;;8;133;0;0;6;-2;;176415;199594;230001;429595;;1;141;152;181;183;;126;-140;124;-145;;95;-102;93;-102;;448;-498;439;-514;;411;-461;403;-476;1751;998;366;;381;419;405;415;;236;272;248;297;1052;-653;-3658;-2973;-146;-268;25;-105;1;;101;99;-74;;-140;255;-395;947;1149;138;-420;215;;0;0;0;0;0;0;0;0;;-198;-255;-561;1011;1878;130;-555;169;;1957;0;;0;0;0;0;15;-586;1791;0;0;0;0;0;0;0;0;0;0;0;-105;3578;;779;1813;3812;51800;49646;64;66;66;68;120;779;119;-1;;0;98;39;127;58;976;-36;7;28;2129;976;1435;12;-12;-12;1;8;-13;52;;-285;-212;385;;-245;346;-192;;50;0;140;947;0;1011;;-264;208;-181;;123;127;356;106;3;9;1519;593;9866;40;26;;;66
09:37:43.733;0;8;4;-1;;100;;1580;2035;1163;;8;131;0;0;6;-2;;177194;200394;230822;431215;;1;152;157;184;183;;136;-152;134;-155;;83;-87;83;-70;;395;-439;389;-454;;370;-410;367;-439;1751;998;366;;354;298;382;383;;193;183;207;192;1052;-653;-3658;-2973;-146;-268;25;-105;1;;108;92;-74;;-140;-68;-395;758;1148;130;-396;215;;0;0;0;0;0;0;0;0;;-195;0;-559;1299;1876;140;-558;169;;1957;0;;0;0;0;0;-1240;-421;2197;0;0;0;0;0;0;0;0;0;0;0;-105;3578;;779;1813;3812;51800;49646;64;66;66;68;120;779;119;-1;;0;98;39;91;81;950;-24;-11;-43;2546;1596;1364;-59;24;4;-36;9;-7;54;;-632;118;572;;-256;524;-199;;50;0;140;758;0;1299;;-275;386;-188;;125;124;-80;99;2;8;1339;388;9902;36;19;;;67
09:37:43.834;0;8;4;-1;;100;;1580;2035;1163;;8;128;0;0;6;-2;;177974;201045;231587;432632;;1;157;142;182;181;;140;-156;137;-161;;83;-87;83;-70;;395;-439;389;-454;;370;-410;367;-439;1585;-6470;-1997;;354;298;382;383;;193;183;207;192;775;-479;-13235;-2462;-529;-222;22;-162;1;;108;92;-72;;-140;-68;-395;758;1148;130;-396;225;;0;0;0;0;0;0;0;0;;-195;0;-559;1299;1876;140;-558;142;;2056;0;;0;0;0;0;-2467;116;2438;0;0;0;0;0;0;0;0;0;0;0;-162;3474;;779;1813;3812;51800;49646;64;66;66;68;120;779;119;-1;;0;98;39;179;20;964;53;0;-21;3250;3137;1434;46;-59;-13;13;-23;-13;56;;-477;210;528;;-251;598;-193;;50;0;140;758;0;1299;;-273;443;-179;;119;119;-240;79;0;7;1341;63;9910;31;18;;;68
09:37:43.937;0;8;4;-1;;100;;1580;2035;1163;;8;120;0;0;6;-2;;178816;201697;232352;434049;;1;142;142;180;181;;127;-141;125;-144;;116;-84;92;-74;;439;-489;429;-505;;390;-452;391;-474;1585;-6470;-1997;;454;261;421;219;;300;145;233;119;775;-479;-13235;-2462;-529;-222;22;-162;1;;94;106;-72;;-140;-255;-395;657;1146;132;-384;225;;0;0;0;0;0;0;0;0;;-194;-193;-550;1046;1873;131;-552;142;;2056;0;;0;0;0;0;-2422;453;2880;0;0;0;0;0;0;0;0;0;0;0;-162;3474;;779;1813;3812;51800;49646;64;66;66;68;120;779;119;-1;;0;98;39;157;17;990;-54;-16;17;3461;3340;1561;87;-46;27;43;-57;8;58;;-304;-50;679;;-249;554;-186;;50;0;140;657;0;1046;;-271;399;-172;;121;121;121;81;-1;9;1510;-72;9885;38;22;;;69
09:37:44.047;0;8;4;-1;;100;;1580;2035;1163;;8;122;0;0;6;-2;;179584;202412;232992;435404;;1;142;153;183;187;;127;-141;125;-144;;93;-91;111;-108;;398;-442;392;-451;;363;-405;346;-410;1524;-3053;-4245;;392;242;325;305;;241;138;225;187;792;-63;-13161;-4985;-526;-449;23;-73;1;;100;100;-64;;-140;-125;-395;747;1144;123;-393;231;;0;0;0;0;0;0;0;0;;-193;-255;-550;944;1869;132;-537;166;;1691;0;;0;0;0;0;-660;-214;3026;0;0;0;0;0;0;0;0;0;0;0;-73;2955;;779;1813;3812;51800;49646;64;66;66;68;120;779;119;-1;;0;98;39;77;40;973;-50;28;-20;3684;2521;1903;-115;8;15;-8;-51;21;60;;523;-189;612;;-245;675;-186;;50;0;140;747;0;944;;-262;553;-176;;116;115;-278;80;1;9;1440;224;9893;40;21;;;70
09:37:44.141;0;8;4;-1;;100;;1580;2035;1163;;8;118;0;0;9;1;;180354;203046;233622;436668;;1;153;157;184;187;;129;-150;142;-139;;92;-111;120;-137;;398;-442;392;-451;;366;-404;346;-401;1517;-9530;-5293;;435;474;628;650;;247;289;419;479;1433;1051;7778;-2217;311;-200;31;182;2;;117;83;-55;;-140;-232;-395;615;1142;127;-387;233;;0;0;0;0;0;0;0;0;;-192;255;-547;1078;1866;121;-550;163;;1692;0;;0;0;0;0;2015;-1296;2719;123;152;100;35;0;0;0;0;0;0;0;182;3880;;958;1824;3882;63328;56151;59;66;65;68;119;958;115;-1;;0;98;39;138;1;995;68;-26;14;5496;2771;2107;-38;-7;-1;-22;-62;15;62;;848;-447;329;;-223;510;-186;;50;0;140;615;0;1078;;-241;382;-175;;115;116;65;76;5;9;1519;631;9864;39;26;;;71
09:37:44.237;0;8;4;-1;;100;;1580;2035;1163;;8;117;0;0;9;1;;181141;203955;234900;438855;;1;157;154;184;187;;133;-155;140;-150;;84;-131;111;-110;;404;-470;445;-436;;372;-415;403;-398;1588;3187;-1852;;371;551;742;667;;204;416;492;460;1572;198;22296;-188;892;-17;31;152;2;;121;79;4;;-140;-110;-395;862;1141;121;-402;220;;0;0;0;0;0;0;0;0;;-191;-255;-544;1177;1863;116;-517;154;;2038;0;;0;0;0;0;4298;-1129;1859;0;0;0;0;0;0;0;0;0;0;0;152;4371;;958;1824;3882;63328;56151;59;66;65;68;119;958;115;-1;;0;98;39;193;41;955;-1;25;40;2226;4290;2432;142;-4;-41;2;3;-30;64;;974;20;211;;-238;412;-186;;50;0;140;862;0;1177;;-259;263;-173;;119;122;229;65;7;10;1723;1043;9795;44;38;;;72
09:37:44.343;0;8;4;-1;;100;;1581;1960;1167;;8;113;0;0;9;1;;181970;204878;236309;441187;;1;154;157;185;184;;130;-151;137;-147;;50;-132;122;-87;;417;-486;439;-470;;396;-433;393;-439;1662;7249;-275;;187;583;587;521;;87;465;454;317;1322;-55;18307;1185;732;107;28;30;1;;118;82;-46;;-140;-66;-395;819;1140;113;-411;222;;0;0;0;0;0;0;0;0;;-190;255;-539;1056;1860;108;-546;165;;1874;0;;0;0;0;0;4351;-82;1081;0;0;0;0;0;0;0;0;0;0;0;30;3753;;958;1824;3882;63328;56151;59;66;65;68;119;958;115;-1;;0;98;39;188;82;940;1;21;-18;766;3739;2801;37;83;-27;41;43;-48;66;;579;305;229;;-239;378;-192;;50;0;140;819;0;1056;;-258;242;-181;;120;123;14;43;8;9;1662;1303;9774;50;42;;;73
09:37:44.449;0;8;4;-1;;100;;1581;1960;1167;;9;115;0;0;9;1;;182795;205648;237418;443065;;1;157;159;184;184;;133;-155;139;-152;;21;-119;90;-111;;407;-473;429;-461;;396;-428;396;-418;1639;2525;3734;;54;550;392;428;;23;417;266;299;1005;-315;3167;1536;127;138;25;-75;1;;115;85;-23;;-140;-231;-395;721;1138;106;-389;222;;0;0;0;0;0;0;0;0;;-189;-255;-536;993;1857;104;-531;165;;1713;0;;0;0;0;0;1979;1465;933;0;0;0;0;0;0;0;0;0;0;0;-75;3137;;958;1824;3882;63328;56151;59;66;65;68;119;958;115;-1;;0;98;39;128;124;975;-49;29;18;3566;1516;3553;-56;80;16;79;102;-30;68;;-580;510;162;;-227;358;-212;;50;0;140;721;0;993;;-245;233;-201;;124;126;182;46;6;8;1369;1111;9843;39;30;;;74
09:37:44.542;0;8;4;-1;;100;;1581;1960;1167;;9;115;0;0;9;0;;183603;206251;238238;444489;;1;159;160;181;187;;134;-157;138;-156;;96;-138;114;-132;;417;-486;436;-476;;374;-434;392;-425;1626;-1773;2695;;141;746;438;651;;72;594;301;486;1453;233;-5265;3970;-211;357;30;97;1;;110;90;-33;;-140;-255;-395;632;1136;108;-382;232;;0;0;0;0;0;0;0;0;;-189;29;-533;1067;1854;96;-533;164;;1698;0;;0;0;0;0;-2235;2366;1071;0;0;0;0;0;0;0;0;0;0;0;97;3675;;958;1824;3882;63328;56151;59;66;65;68;119;958;115;-1;;0;98;39;142;72;965;20;-20;-55;3825;2364;2871;-59;-9;45;9;96;17;70;;-1340;609;232;;-221;372;-206;;50;0;140;632;0;1067;;-239;244;-195;;121;123;-160;79;2;6;1069;379;9935;25;13;;;75
09:37:44.646;0;8;4;-1;;100;;1581;1960;1167;;9;116;0;0;9;0;;184416;207139;239327;446465;;1;160;160;175;187;;135;-158;138;-158;;127;-131;115;-121;;420;-492;432;-489;;372;-440;392;-445;1649;543;873;;520;632;656;669;;342;529;434;499;1804;376;5951;8656;238;779;33;186;1;;107;93;-53;;-140;255;-395;1112;1136;155;-410;206;;0;0;0;0;0;0;0;0;;-188;80;-533;1121;1851;90;-531;159;;2232;0;;0;0;0;0;-5160;2553;1451;74;127;75;30;0;0;0;0;0;0;0;186;4709;;958;1824;3882;63328;56151;59;66;65;68;119;958;115;-1;;0;98;39;133;22;1013;-20;-44;35;3561;2873;2836;16;-92;14;-71;19;73;72;;-894;306;469;;-226;729;-200;;50;0;140;1112;0;1121;;-247;573;-188;;115;115;-435;102;-2;5;960;-170;9952;23;9;;;76
09:37:44.748;0;8;4;-1;;100;;1581;1960;1167;;9;118;0;0;9;0;;185242;208290;240652;448942;;1;160;159;174;178;;135;-158;136;-160;;112;-122;124;-111;;423;-495;432;-495;;379;-447;383;-455;1664;1899;159;;506;444;555;519;;350;374;428;385;1538;-46;12292;9508;492;856;30;54;1;;106;94;-72;;-140;-174;-395;953;1135;150;-399;206;;0;0;0;0;0;0;0;0;;-187;148;-530;1114;1848;84;-537;160;;2066;0;;0;0;0;0;-3959;818;1725;173;248;152;54;0;0;0;0;0;0;0;54;4091;;958;1824;3882;63328;56151;59;66;65;68;119;958;115;-1;;0;98;39;123;2;935;44;28;-60;6320;3915;3065;-45;-93;-17;-80;-101;22;74;;-136;-394;303;;-186;609;-193;;50;0;140;953;0;1114;;-206;461;-181;;115;115;50;92;-2;7;1191;-250;9926;30;14;;;77
09:37:44.853;0;8;4;-1;;100;;1581;1960;1167;;10;116;0;0;9;0;;186087;209241;241726;450966;;1;159;159;179;181;;134;-157;134;-161;;73;-120;84;-106;;423;-495;426;-501;;396;-449;396;-463;1704;1899;159;;322;477;421;487;;186;359;261;333;1140;-396;12292;9508;141;517;26;-99;1;;106;94;-67;;-140;-152;-395;880;1134;140;-392;215;;0;0;0;0;0;0;0;0;;-186;62;-528;1280;1845;101;-524;160;;2160;0;;0;0;0;0;-1467;-791;1768;180;243;152;52;0;0;0;0;0;0;0;54;4091;;958;1824;3882;63328;56151;59;66;65;68;119;958;115;-1;;0;98;39;149;22;945;-12;-4;-5;185;3571;3058;46;21;-72;-12;-116;-32;76;;-89;-188;358;;-185;556;-186;;50;0;140;880;0;1280;;-205;408;-174;;112;113;-103;54;-1;8;1439;-112;9895;36;20;;;78
09:37:44.942;0;8;4;-1;;100;;1581;1960;1167;;9;107;0;0;9;0;;186920;210040;242634;452673;;1;159;160;182;179;;134;-158;136;-160;;95;-126;101;-151;;420;-492;420;-505;;388;-444;382;-448;1704;2710;1681;;401;558;440;669;;226;420;273;568;1140;-396;3537;5750;141;517;26;-99;1;;107;93;-67;;-140;255;-395;1152;1134;165;-405;219;;0;0;0;0;0;0;0;0;;-185;-248;-525;1746;1845;228;-518;144;;2160;0;;0;0;0;0;-881;-629;1503;50;69;46;16;0;0;0;0;0;0;0;-99;3868;;958;1824;3882;63328;56151;59;66;65;68;119;958;115;-1;;0;98;39;130;22;979;29;16;-25;1722;3303;2749;-18;8;57;-6;-69;-28;78;;-365;99;281;;-181;594;-192;;50;0;140;1152;0;1746;;-203;435;-178;;114;114;110;58;-2;7;1306;-174;9913;33;17;;;79
09:37:45.043;0;8;4;-1;;100;;1581;1960;1167;;9;108;0;0;9;0;;187758;210999;243743;454741;;1;160;144;180;167;;135;-158;136;-160;;101;-117;114;-125;;423;-495;426;-501;;387;-451;378;-453;1663;-89;1266;;410;534;416;568;;251;394;290;466;1487;118;-5963;3592;-239;323;30;54;1;;102;98;-65;;-140;255;-395;886;1133;152;-405;204;;0;0;0;0;0;0;0;0;;-184;126;-522;1694;1844;264;-528;99;;2898;0;;0;0;0;0;-1903;-158;1771;0;0;0;0;0;0;0;0;0;0;0;54;4966;;958;1824;3882;63328;56151;59;66;65;68;119;958;115;-1;;0;98;39;117;5;984;-33;-16;-5;1370;1964;2727;-6;-8;25;-2;-17;0;80;;-600;-104;420;;-161;675;-186;;50;0;140;886;0;1694;;-191;460;-167;;109;110;-205;74;-3;8;1343;-385;9902;35;19;;;80
09:37:45.144;0;8;4;-1;;100;;1581;1960;1167;;9;104;0;0;9;0;;188596;211942;244727;456669;;1;144;99;181;172;;121;-142;120;-146;;101;-117;114;-125;;423;-495;426;-501;;387;-451;378;-453;1670;-1674;397;;410;534;416;568;;251;394;290;466;1400;-15;-8593;86;-344;8;29;12;1;;102;98;-75;;-140;255;-395;886;1133;152;-405;219;;0;0;0;0;0;0;0;0;;-212;126;-522;1694;1844;264;-528;104;;2579;0;;0;0;0;0;-2567;-138;1984;0;0;0;0;0;0;0;0;0;0;0;12;4507;;1082;1803;3939;70450;62229;58;65;67;67;117;1082;107;-1;;0;98;39;136;-17;963;13;-4;-15;410;880;3311;-6;-45;-17;18;-6;16;82;;-421;-16;417;;-167;723;-185;;50;0;140;886;0;1694;;-195;526;-167;;107;108;-104;34;-4;8;1367;-551;9891;35;21;;;81
09:37:45.243;0;8;4;-1;;100;;1581;1960;1167;;9;99;0;0;9;0;;189371;212886;245710;458597;;1;102;102;180;169;;86;-101;87;-102;;58;-96;68;-98;;379;-445;376;-458;;362;-413;357;-427;1559;-5162;-2435;;304;492;422;502;;138;313;200;337;988;-605;-8393;-2127;-336;-191;25;-144;1;;108;92;-70;;-140;-255;-395;758;1131;146;-383;225;;0;0;0;0;0;0;0;0;;-212;255;-519;1982;1845;335;-534;76;;2740;0;;0;0;0;0;-2013;98;2104;0;0;0;0;0;0;0;0;0;0;0;-144;4460;;1082;1803;3939;70450;62229;58;65;67;67;117;1082;107;-1;;0;98;39;125;-32;965;-19;-5;12;530;594;2876;15;-35;-25;-13;-60;-1;84;;-139;229;401;;-184;470;-184;;50;0;140;758;0;1982;;-216;254;-163;;109;113;199;82;-4;7;1282;-573;9901;33;19;;;82
09:37:45.343;0;8;4;-1;;100;;1580;2180;1137;;9;97;0;0;17;8;;190126;213682;246635;460317;;1;102;76;179;169;;74;-96;101;-70;;74;-127;81;-134;;379;-445;376;-458;;356;-399;347;-409;1510;-7986;-4897;;380;597;350;682;;167;439;181;521;1307;111;-1642;-1136;-66;-102;29;57;1;;103;97;-62;;-140;255;-395;1024;1131;145;-404;211;;0;0;0;0;0;0;0;0;;-239;-255;-598;2345;1848;442;-573;41;;3368;0;;0;0;0;0;-1137;626;1816;0;0;0;0;0;0;0;0;0;0;0;57;5377;;1082;1803;3939;70450;62229;58;65;67;67;117;1082;107;-1;;0;98;39;121;-26;965;-2;12;-33;1237;714;2572;-20;-12;20;5;-59;-24;86;;-110;206;258;;-196;821;-192;;50;0;140;1024;0;2345;;-234;559;-168;;113;112;46;78;-4;7;1180;-552;9915;30;17;;;83
09:37:45.444;0;8;4;-1;;100;;1580;2180;1137;;10;107;0;0;17;8;;190611;214658;247667;462325;;1;76;41;178;159;;55;-72;71;-57;;73;-85;36;-68;;232;-301;316;-219;;204;-281;308;-215;1008;-27574;-14692;;158;400;219;400;;90;256;75;239;661;-594;-17444;-5009;-698;-451;26;-115;1;;105;95;94;;-140;-136;-395;875;1130;134;-399;211;;0;0;0;0;0;0;0;0;;-255;-255;-674;3189;1858;681;-650;41;;4064;0;;0;0;0;0;-45;1391;1372;0;0;0;0;0;0;0;0;0;0;0;-115;5241;;1082;1803;3939;70450;62229;58;65;67;67;117;1082;107;-1;;0;98;39;-55;-31;886;-201;8;-65;44690;9715;1817;-135;0;-82;-93;-50;-60;88;;337;422;140;;-167;705;-179;;50;0;140;875;0;3189;;-205;443;-155;;109;110;-132;81;-2;6;656;-384;9971;25;6;;;84
09:37:45.548;0;8;4;-1;;100;;1580;2180;1137;;11;116;0;0;17;6;;190992;215216;248286;463502;;1;41;41;171;147;;29;-39;36;-33;;9;-75;42;-39;;172;-225;222;-178;;176;-205;218;-168;768;-37137;-23564;;89;374;157;199;;22;190;48;86;346;-286;-24335;-11911;-973;-1072;21;-285;1;;87;113;50;;-140;-122;-395;680;1128;141;-390;219;;0;0;0;0;0;0;0;0;;-255;-255;-720;3334;1869;810;-670;20;;4013;0;;0;0;0;0;503;1075;872;0;0;0;0;0;0;0;0;0;0;0;-285;4832;;1082;1803;3939;70450;62229;58;65;67;67;117;1082;107;-1;;0;98;39;18;13;958;-91;87;-89;23771;25071;1253;-97;17;33;-113;-11;0;90;;17;101;157;;-155;693;-212;;50;0;140;680;0;3334;;-205;359;-178;;108;110;-15;43;-2;4;612;-274;9977;19;4;;;85
09:37:45.647;0;8;4;-1;;100;;1580;2180;1137;;12;123;0;0;17;6;;191216;215679;248642;464321;;1;41;20;171;148;;30;-39;37;-33;;1;-37;14;-42;;94;-122;116;-103;;109;-115;124;-94;768;-37137;-23564;;66;161;95;174;;5;68;16;53;346;-286;-24335;-11911;-973;-1072;21;-285;1;;108;92;50;;-140;255;-395;962;1127;134;-406;230;;0;0;0;0;0;0;0;0;;-255;-255;-720;3229;1878;847;-672;20;;4013;0;;0;0;0;0;740;525;592;0;0;0;0;0;0;0;0;0;0;0;-285;4832;;1082;1803;3939;70450;62229;58;65;67;67;117;1082;107;-1;;0;98;39;74;-19;945;-28;12;-56;4064;27606;4840;100;27;29;-85;11;9;92;;183;202;76;;-152;682;-194;;50;0;140;962;0;3229;;-202;348;-160;;107;110;-19;19;-1;4;680;-217;9975;17;5;;;86
