heure;event;SM;AvAr;choc;detection_0_text;coef;;Vbatt;Iuser_int;Icharge;;dir;dir ratio;dir bloque;dir bloque_inv;dir cons;dir err;;s_bfm;s_pwd_av;s_pwd_ar;s_pwd_avar;;vit_AvAr;vit_calc;V_limitee_par_tondeuses;V_Roues_RollPitch;vitesse_sense grp tonds;;G PWM act;H PWM act;I PWM act;J PWM act;;G PWM lu;H PWM lu;I PWM lu;J PWM lu;;G Speed_obj;H Speed_obj;I Speed_obj;J Speed_obj;;G BFM;H BFM;I BFM;J BFM;sBFM;sigma_BFM A3;sigma_BFM A5;;G s;H s;I s;J s;;G Pwd;H Pwd;I Pwd;J Pwd;sigma_Pwd;sigma_Pwd ratio;sigma_Pwd A5;sigma_Pwd A10;sigma_Pwd d5;sigma_Pwd d10;P_B;P_B ratio 2;BFM_PWD_av_ar;;Pwd Av;Pwd Ar;couple_ar;;T0 pwm;T0 pwm lu;T0 obj;T0 Sense;T0 Sense LT;T0 Sense ET;T0 bfm;T0 v sense;;T1 pwm;T1 pwm lu;T1 obj;T1 Sense;T1 Sense LT;T1 Sense ET;T1 bfm;T1 v sense;;T2 pwm;T2 pwm lu;T2 obj;T2 Sense;T2 Sense LT;T2 Sense ET;T2 bfm;T2 v sense;;sigma_sense_;histo_ratio_pwd;;ch_ev_D_g_20;ch_ev_D_g_5P;ch_ev_D_g_5M;ch_ev_D_g_inv;ch_ev_I_gx_5p;ch_ev_I_gy_5p;ch_ev_I_gz_5p;ch_ev_PI_gx_5;ch_ev_PI_gy_5;ch_ev_PI_gz_5;ch_ev_PI_gv_5p;ch_ev_PI_AX_500ms;ch_ev_PI_AY_500ms;ch_ev_PI_AXY_500ms;ch_ev_PI_AX_1000ms;ch_ev_PI_AY_1000ms;ch_ev_PI_AXY_1000ms;ch_ev_PI_Av5_10XY_sPd5;ch_ev_P_PB_ratio;ch_P_i_sigma_sense;;GPS_dist_5pts;GPS_dist_10pts;GPS_dist_20pts;GPS sBFM 5;GPS sPWD 5;Patine_GPS pwd 5;Patine_GPS bfm 5;Patine_GPS bfm 10;Patine_GPS bfm 20;GPS Heading_0_;GPS dist;k_gps.cap;GPHDT_heading;;IMUs reboot;T nbreb;T temp;TAx;TAy;TAz;TAdx;TAdy;TAdz;TAdv;TAdv s5 1;TAdv s15 5;TAx d5;TAy d5;TAz d5;TAx d10;TAy d10;TAz d10; Tseq;;TGx;TGy;TGz;;TKx;TKy;TKz;;TKx cT0;TKx cT1;TKx cT2;TKx sT0;TKx sT1;TKx sT2;;TKx v;TKy v;TKz v;;T heading;T heading_2;T heading d;T heading dET;T roll ;T pitch;T kest X;T kest Y;T kest Z;T rp_risk1;T rp_risk2;;;1714
13:43:15.652;0;4;0;25;NOT_braquage_EnCours;64;;1502;2487;571;;21;378;1;0;17;-1;;-1501;3679;8069;11749;;0;-160;94;160;166;;0;0;0;0;;0;0;0;0;;0;0;0;0;;45;-14;169;172;400;-1434;3812;;4;37;701;763;;0;2;9;158;169;-973;-4073;-3504;-1002;-946;21;-180;-1856;;195;5;341;;-171;255;-482;1050;1331;82;-501;149;;0;0;0;0;0;0;0;0;;-207;-255;-587;1386;1661;170;-575;109;;2436;0;;0;0;0;0;-333;400;-1288;0;0;0;0;0;0;0;0;0;0;0;-20;2288;;145;734;2556;28526;49785;0;0;0;0;169;145;7;-1;;0;104;44;-94;-81;985;6;34;21;1633;1454;8473;42;45;14;-161;7;21;37;;-155;251;-773;;489;177;-203;;50;0;140;1050;0;1386;;463;-11;-187;;5;4;149;65;-8;-7;-1140;-1267;9854;49;28;;;0
13:43:15.751;0;-7;-9;-1;;0;;1502;2487;571;;20;324;1;0;17;-4;;59;41;1464;1505;;-1;-160;103;160;167;;0;0;0;0;;0;0;0;0;;0;0;0;0;;45;-14;169;172;400;-30698;-11080;;4;37;701;763;;0;2;9;158;169;-973;-25047;-10506;-1002;-946;21;-180;-1856;;195;5;341;;-170;255;-482;1050;1331;82;-501;140;;0;0;0;0;0;0;0;0;;-207;-255;-587;1386;1661;170;-575;125;;2436;0;;0;0;0;0;-2;1;-6;0;0;0;0;0;0;0;0;0;0;0;0;13;;145;734;2556;28526;49785;0;0;0;0;169;145;7;-1;;0;104;44;-163;-171;956;7;-26;-32;1749;2821;8667;-87;-47;-6;-13;1;-2;39;;68;-216;328;;500;-55;-203;;50;0;140;1050;0;1386;;475;-232;-188;;2;356;-427;169;-8;-7;-1293;-1414;9815;48;35;;;1
13:43:15.866;0;-7;-9;-1;;3;;1502;2487;571;;20;290;1;0;17;-3;;70;82;2928;3010;;-1;-160;117;160;167;;-115;154;-126;153;;-13;0;6;0;;0;0;0;0;;11;-0;15;2;28;-48115;-25959;;8;14;91;100;;1;0;4;32;37;-185;-23813;-14322;-953;-1289;36;93;38;;180;20;17;;-170;170;-480;966;1330;80;-488;150;;0;0;0;0;0;0;0;0;;-206;-255;-584;1365;1660;186;-576;127;;2331;0;;0;0;0;0;-9;5;-20;0;0;0;0;0;0;0;0;0;0;0;0;73;;145;734;2556;28526;49785;0;0;0;0;169;145;7;-1;;0;104;44;-143;-139;976;-26;5;9;782;3640;9394;40;16;-5;-24;-26;1;42;;77;100;-35;;488;235;-197;;50;0;140;966;0;1365;;464;64;-182;;4;5;376;156;-8;-7;-1311;-1388;9816;49;35;;;2
13:43:16.003;0;-7;-9;-1;;8;;1502;2487;571;;19;249;1;0;17;-3;;-163;103;3119;3222;;-1;-160;126;160;170;;-115;154;-126;153;;-255;255;-211;255;;-360;483;-395;480;;-174;256;-316;247;460;3025;-20692;;599;593;845;1096;;854;849;973;1464;2757;1338;30012;164;1200;15;77;700;1;;101;99;-20;;-169;173;-480;1029;1327;71;-485;150;;0;0;0;0;0;0;0;0;;-204;113;-578;1449;1657;191;-578;119;;2268;0;;0;0;0;0;30;12;6;0;0;0;0;0;0;0;0;0;0;0;5;369;;145;734;2556;28526;49785;0;0;0;0;169;145;7;-1;;0;104;44;-217;-128;1006;123;-8;31;16154;12379;6022;-179;10;33;-156;-16;14;44;;308;-41;-411;;500;203;-196;;50;0;140;1029;0;1449;;475;21;-180;;11;9;221;88;-7;-10;-1831;-1176;9760;44;44;;;3
13:43:16.092;0;-7;-9;-1;;16;;1502;2487;571;;18;221;1;0;17;-2;;-593;1231;4280;5510;;-1;-160;119;160;167;;-114;155;-119;162;;-255;255;-211;255;;-360;483;-395;480;;-174;256;-316;247;993;48227;650;;599;593;845;1096;;854;849;973;1464;4140;300;91789;19173;3672;1726;65;138;1;;124;76;-69;;-169;173;-480;1029;1327;71;-485;143;;0;0;0;0;0;0;0;0;;-203;113;-578;1449;1657;191;-578;119;;2477;0;;0;0;0;0;161;67;-186;0;0;0;0;69;59;58;0;0;0;0;3;883;;145;734;2556;28526;49785;0;0;0;0;169;145;7;-1;;0;104;44;-175;-123;955;59;1;18;3806;12996;2367;17;11;-32;-119;1;-19;46;;603;257;-816;;471;202;-202;;50;0;140;1029;0;1449;;446;20;-186;;8;7;-94;103;-5;-12;-2019;-945;9748;50;46;;;4
13:43:16.186;0;-7;-9;-1;;27;;1502;2487;571;;18;210;1;0;17;-1;;-1312;2422;6220;8642;;-1;-160;119;160;167;;-114;155;-117;164;;-90;137;-83;88;;-357;486;-373;508;;-308;411;-336;461;1516;48227;650;;490;499;300;539;;379;492;312;516;1699;-164;91789;19173;2866;1840;33;-64;1;;92;108;125;;-168;183;-477;1136;1326;75;-480;143;;0;0;0;0;0;0;0;0;;-202;-255;-576;1650;1657;178;-566;98;;2785;0;;0;0;0;0;557;178;-745;0;0;0;0;132;99;98;0;0;0;0;10;1498;;145;734;2556;28526;49785;0;0;0;0;169;145;7;-1;;0;104;44;-127;-95;965;24;9;3;666;5336;7308;105;34;-23;-24;54;-6;48;;561;83;-715;;506;179;-202;;50;0;140;1136;0;1650;;477;-26;-184;;10;7;40;64;-4;-11;-1850;-691;9803;48;37;;;5
13:43:16.296;0;-7;-9;-1;;39;;1502;2487;571;;18;202;1;0;17;-1;;-2031;3412;7059;10471;;-1;-160;98;160;162;;-114;155;-118;163;;-81;102;-49;127;;-357;486;-367;514;;-324;440;-349;462;1516;52786;31970;;350;306;191;390;;209;245;107;337;1699;-164;71638;20445;2866;1840;33;-64;1;;92;108;112;;-168;62;-477;1163;1325;80;-469;130;;0;0;0;0;0;0;0;0;;-202;-45;-573;1447;1656;169;-575;119;;2610;0;;0;0;0;0;1044;277;-1405;0;0;0;0;132;116;113;0;0;0;0;-10;1812;;145;734;2556;28526;49785;0;0;0;0;169;145;7;-1;;0;104;44;-131;-107;970;-5;-4;6;77;1120;7676;45;13;13;72;43;-12;50;;567;145;-748;;500;101;-196;;50;0;140;1163;0;1447;;474;-87;-180;;5;1;-305;86;-2;-11;-1737;-534;9833;45;32;;;6
13:43:16.381;0;-7;-9;-1;;55;;1502;2487;571;;18;190;1;0;17;-1;;-2795;4401;7899;12300;;-1;-160;111;160;165;;-114;154;-120;161;;-66;91;-53;104;;-357;486;-370;511;;-329;452;-353;466;1575;29129;41500;;204;292;159;304;;105;174;61;216;898;-190;6645;14068;266;1266;24;-113;1;;94;106;112;;-168;-183;-474;961;1324;81;-474;127;;0;0;0;0;0;0;0;0;;-201;-255;-570;1514;1655;157;-559;119;;2610;0;;0;0;0;0;1452;399;-1982;0;0;0;0;0;0;0;0;0;0;0;-34;2100;;207;463;2398;33608;58639;0;0;0;0;159;207;0;-1;;0;104;44;-133;-76;974;-12;13;6;349;317;7641;-3;21;9;176;45;-4;52;;315;181;-633;;490;-41;-201;;50;0;140;961;0;1514;;464;-229;-185;;0;354;-391;87;-2;-10;-1691;-452;9846;44;29;;;7
13:43:16.472;0;-7;-9;-1;;72;;1502;2487;571;;19;186;1;0;17;-1;;-3576;5056;8480;13537;;-1;-160;111;160;165;;-114;155;-117;164;;-66;91;-53;104;;-357;486;-370;511;;-329;452;-353;466;1599;4173;28609;;204;292;159;304;;105;174;61;216;557;-142;-76422;9858;-3057;887;19;-124;1;;96;104;113;;-168;-183;-474;961;1324;81;-474;151;;0;0;0;0;0;0;0;0;;-201;-255;-570;1514;1655;157;-559;112;;2474;0;;0;0;0;0;1699;713;-2498;0;0;0;0;0;0;0;0;0;0;0;-65;2487;;207;463;2398;33608;58639;0;0;0;0;159;207;0;-1;;0;104;44;-112;-80;954;20;3;-10;509;303;6596;11;24;-14;82;45;16;54;;754;274;-775;;518;124;-196;;50;0;140;961;0;1514;;492;-60;-180;;359;358;151;134;-1;-10;-1671;-271;9856;44;28;;;8
13:43:16.581;0;-7;-9;-1;;93;;1502;2487;571;;19;179;1;0;17;-2;;-4357;5553;8943;14496;;-1;-160;112;160;167;;-114;154;-120;161;;-96;54;-54;85;;-357;486;-367;514;;-316;465;-344;483;1608;1632;13139;;248;144;98;301;;133;71;37;164;406;-105;-86109;2412;-3444;217;16;-117;1;;101;99;139;;-167;104;-474;935;1322;83;-477;154;;0;0;0;0;0;0;0;0;;-199;-255;-567;1294;1654;167;-556;112;;2229;0;;0;0;0;0;2595;1018;-3432;0;0;0;0;0;0;0;0;0;0;0;-100;2796;;207;463;2398;33608;58639;0;0;0;0;159;207;0;-1;;0;104;44;-155;-27;983;-25;71;-6;5702;1717;6141;-17;33;17;0;48;16;56;;661;-64;-898;;518;-53;-182;;50;0;140;935;0;1294;;495;-216;-168;;359;354;-238;129;0;-9;-1604;0;9871;40;25;;;9
13:43:16.673;0;-7;-9;52;bfm_limite;100;;1503;2259;600;;19;171;1;0;17;-2;;-5156;5945;9342;15286;;-1;-160;112;160;171;;-114;154;-120;161;;-72;53;-56;86;;-357;483;-376;505;;-334;465;-356;473;1628;1423;2565;;364;127;134;268;;150;46;43;141;380;-66;-31303;-4812;-1252;-433;15;-98;1;;90;110;117;;-167;-255;-471;921;1320;84;-471;156;;0;0;0;0;0;0;0;0;;-199;-81;-564;1206;1652;183;-562;135;;2127;0;;0;0;0;0;3243;426;-4114;0;0;0;0;0;0;0;0;0;0;0;-98;3020;;207;463;2398;33608;58639;0;0;0;0;159;207;0;-1;;0;104;44;-122;-38;975;33;-8;-7;1202;1859;2569;-18;61;14;-15;75;16;58;;416;-249;-818;;508;131;-176;;50;0;140;921;0;1206;;487;-24;-163;;355;355;120;161;1;-8;-1412;115;9899;37;20;;;10
13:43:16.771;0;-4;-1;-1;;0;;1503;2259;600;;19;167;1;0;17;-2;;-795;491;402;893;;0;-160;126;160;172;;-114;154;-119;162;;-66;68;-70;96;;-357;483;-376;505;;-335;461;-351;467;1614;277;1048;;314;193;189;251;;128;71;71;142;411;-26;-11501;-11347;-460;-1021;16;-77;1;;93;107;115;;-166;-255;-471;948;1319;80;-463;153;;0;0;0;0;0;0;0;0;;-198;-181;-561;1337;1650;174;-562;144;;2285;0;;0;0;0;0;3;0;-4;0;0;0;0;0;0;0;0;0;0;0;0;3;;207;463;2398;33608;58639;0;0;0;0;159;207;0;-1;;0;104;44;-78;-40;1001;22;2;4;504;1680;1328;84;-15;20;28;61;32;60;;66;-219;-686;;494;-59;-188;;50;0;140;948;0;1337;;471;-227;-174;;357;352;-211;171;1;-7;-1135;30;9935;31;13;;;11
13:43:16.872;0;-4;-1;-1;;2;;1503;2259;600;;20;168;1;1;-17;-37;;-1549;997;841;1839;;0;-160;136;160;170;;15;-15;-160;-160;;-118;122;-105;106;;-357;483;-373;508;;-312;442;-336;470;1559;-3437;-750;;391;419;420;372;;243;255;222;214;935;340;7618;-19004;305;-1710;24;-7;1;;99;101;134;;-166;108;-468;1000;1317;74;-470;146;;0;0;0;0;0;0;0;0;;-197;-109;-559;1145;1648;188;-558;130;;2145;0;;0;0;0;0;24;-21;-77;0;0;0;0;0;0;0;0;0;0;0;0;77;;207;463;2398;33608;58639;0;0;0;0;159;207;0;-1;;0;104;44;-135;-17;1004;-15;3;0;234;1019;1003;-18;26;26;20;68;44;62;;-415;-456;-519;;494;263;-182;;50;0;140;1000;0;1145;;473;110;-170;;6;7;721;218;-1;-5;-986;-208;9949;23;10;;;12
13:43:16.960;0;-4;-1;-1;;6;;1503;2259;600;;20;166;1;1;-17;-37;;-2303;1807;1634;3442;;0;-160;130;160;172;;15;-15;-160;-160;;-118;122;-105;106;;-357;483;-373;508;;-312;442;-336;470;1559;-3437;-750;;391;419;420;372;;243;255;222;214;935;340;7618;-19004;305;-1710;24;-7;1;;99;101;134;;-166;108;-468;1000;1317;74;-470;146;;0;0;0;0;0;0;0;0;;-197;-109;-559;1145;1648;188;-558;150;;2145;0;;0;0;0;0;-52;-82;-205;0;0;0;0;0;0;0;0;0;0;0;0;243;;207;463;2398;33608;58639;0;0;0;0;159;207;0;-1;;0;104;44;-114;-32;987;21;-15;-17;955;970;1032;-34;17;-7;20;55;32;63;;-638;-217;-600;;494;119;-182;;50;0;140;1000;0;1145;;473;-34;-170;;8;5;221;156;-3;-5;-955;-416;9946;24;11;;;13
13:43:17.060;0;-4;-1;-1;;13;;1503;2259;600;;18;144;1;1;-17;-37;;-2842;2618;2427;5045;;0;-160;140;160;172;;15;-15;-160;-160;;0;0;-214;0;;47;-47;-501;-501;;-234;306;-398;279;1217;-19829;-8508;;171;279;516;332;;49;51;565;43;708;-15;11592;-29710;464;-2674;24;-9;5;;131;69;-119;;-165;255;-468;1130;1317;80;-472;131;;0;0;0;0;0;0;0;0;;-196;3;-556;1405;1647;174;-563;123;;2534;0;;0;0;0;0;-252;-197;-291;0;0;0;0;0;0;0;0;0;0;0;0;512;;207;463;2398;33608;58639;0;0;0;0;159;207;0;-1;;0;104;44;173;-66;980;244;-35;-3;60770;13200;1262;260;-42;-28;187;-13;3;65;;-192;-54;-103;;493;164;-195;;50;0;140;1130;0;1405;;468;-19;-180;;9;6;95;91;-3;-4;-256;-615;9978;23;4;;;14
13:43:17.160;0;-4;-1;-1;;23;;1503;2259;600;;11;96;0;0;-17;-31;;-2935;3069;3275;6344;;0;-160;123;160;166;;15;-15;-160;-160;;0;0;-167;-255;;47;-47;-501;-501;;-42;50;-435;-160;688;-43565;-22766;;23;39;993;989;;10;10;895;1197;2112;1217;37606;-15434;1504;-1389;55;261;35;;194;6;-595;;-165;255;-468;1068;1315;75;-473;138;;0;0;0;0;0;0;0;0;;-195;221;-556;1184;1645;175;-556;146;;2251;0;;0;0;0;0;-220;67;-244;0;0;0;0;0;0;0;0;0;0;0;13;976;;207;463;2398;33608;58639;0;0;0;0;159;207;0;-1;;0;104;44;82;-73;946;-76;58;31;10101;16473;1300;248;-73;-60;276;-61;-56;67;;130;475;49;;500;119;-196;;50;0;140;1068;0;1184;;478;-41;-183;;6;3;-172;72;-4;-1;10;-691;9976;25;5;;;15
13:43:17.261;0;-4;-1;-1;;35;;1503;2259;600;;4;47;0;0;-17;-23;;-2847;3131;5257;8388;;0;-160;132;160;170;;15;-15;-160;-160;;0;0;-120;-84;;47;-47;-501;-501;;48;-40;-457;-439;984;-11628;-21296;;17;23;721;375;;2;2;587;388;979;-132;23127;2662;925;240;32;2;-1164;;193;7;-897;;-165;255;-465;1081;1314;72;-472;137;;0;0;0;0;0;0;0;0;;-194;34;-553;1266;1643;165;-551;146;;2346;0;;0;0;0;0;124;527;6;0;0;0;0;0;0;0;0;0;0;0;0;1208;;207;463;2398;33608;58639;0;0;0;0;159;207;0;-1;;0;104;44;-205;-74;997;-14;-20;0;596;31527;6934;-442;24;46;28;-63;-32;69;;141;13;-22;;510;87;-189;;50;0;140;1081;0;1266;;487;-81;-175;;6;2;-49;49;-3;-3;-825;-613;9947;22;10;;;16
13:43:17.362;0;-4;-1;-1;;49;;1503;2259;600;;-5;-11;0;0;-17;-16;;-2755;3170;6353;9524;;0;-160;135;160;169;;15;-15;-160;-160;;9;0;-82;-60;;47;-47;-501;-501;;44;-48;-476;-471;1039;17559;-12728;;6;14;413;164;;1;0;277;124;402;-245;-7949;5170;-318;465;20;-86;-6428;;193;7;-946;;-164;-255;-465;920;1313;76;-447;156;;0;0;0;0;0;0;0;0;;-193;-255;-547;946;1641;203;-534;138;;1865;0;;0;0;0;0;159;202;-189;0;0;0;0;0;0;0;0;0;0;0;-21;1210;;357;93;2058;39986;54064;0;0;0;0;154;357;0;-1;;0;104;44;-134;-55;999;53;-14;12;3149;18570;7952;-171;20;38;-128;-29;6;71;;-44;-233;-260;;536;-19;-189;;50;0;140;920;0;946;;518;-150;-179;;357;354;-462;101;-3;-5;-938;-578;9939;22;12;;;17
13:43:17.462;0;-4;-1;-1;;66;;1503;2259;600;;-17;-85;0;0;-17;-12;;-2673;3191;6930;10121;;0;-160;136;160;177;;15;-15;-160;-160;;8;-27;-141;-150;;47;-47;-501;-501;;44;-38;-453;-424;959;-1277;-1650;;25;68;580;142;;1;9;441;125;576;-46;-19742;4857;-790;437;25;-35;-167;;177;23;-877;;-164;-208;-463;890;1311;82;-451;160;;0;0;0;0;0;0;0;0;;-192;16;-544;1036;1638;205;-545;170;;1926;0;;0;0;0;0;63;-617;-350;0;0;0;0;0;0;0;0;0;0;0;-15;1808;;357;93;2058;39986;54064;0;0;0;0;154;357;357;-1;;0;104;44;-106;-64;1005;-18;12;36;1764;2096;14941;119;-6;-1;-241;5;36;73;;-37;-122;32;;485;270;-201;;50;0;140;890;0;1036;;466;132;-190;;7;8;723;260;-4;-5;-868;-627;9943;24;11;;;18
13:43:17.566;0;-4;0;25;NOT_braquage_EnCours;85;;1503;2259;600;;-22;-117;-1;0;-17;4;;-2597;3283;7652;10935;;0;-160;150;160;176;;0;0;0;0;;33;-16;-176;-171;;47;-47;-501;-501;;36;-40;-435;-435;945;-4673;4899;;128;51;1421;1102;;20;6;1267;914;2206;744;-2150;11554;-86;1040;48;177;-44310;;187;13;-870;;-163;-255;-463;858;1309;89;-455;163;;0;0;0;0;0;0;0;0;;-191;52;-542;1227;1636;189;-549;142;;2084;0;;0;0;0;0;-161;-586;567;0;0;0;0;0;0;0;0;0;0;0;128;4081;;357;93;2058;39986;54064;0;0;0;0;154;357;357;-1;;0;104;44;-63;-63;957;14;-14;-43;2241;2340;15229;61;4;-21;-124;39;39;75;;-62;81;605;;482;11;-189;;50;0;140;858;0;1227;;461;-142;-176;;10;4;-214;248;-4;-5;-788;-645;9948;24;10;;;19
13:43:17.711;0;7;9;-1;;0;;1504;1853;634;;-22;-113;-1;0;-17;5;;-3;179;2523;2702;;1;-160;139;160;171;;0;0;0;0;;3;0;0;0;;0;0;0;0;;3;6;-8;25;42;-45849;-19785;;49;39;336;495;;5;1;253;183;442;-225;7301;5621;292;506;103;562;7;;181;19;17;;-163;255;-460;1065;1308;87;-470;139;;0;0;0;0;0;0;0;0;;-189;39;-539;1141;1634;178;-544;150;;2205;0;;0;0;0;0;0;0;1;0;0;0;0;0;0;0;0;0;0;0;0;10;;357;93;2058;39986;54064;0;0;0;0;154;357;357;-1;;0;104;44;-144;-51;986;43;24;-10;2525;4750;15498;-103;-6;4;53;-6;-21;78;;-77;-27;109;;488;16;-188;;50;0;140;1065;0;1141;;467;-140;-176;;0;357;-577;148;-4;-6;-1085;-671;9918;27;16;;;20
13:43:17.847;0;7;9;-1;;3;;1504;1853;634;;-22;-109;-1;0;-17;4;;-3;268;3354;3621;;1;160;139;160;174;;155;-114;168;-115;;-2;-1;-11;-28;;0;0;0;0;;1;1;5;11;17;-45849;-19785;;6;8;39;67;;1;0;53;45;99;-168;7301;5621;-296;-216;77;110;-7;;178;22;15;;-163;255;-460;1068;1307;84;-477;138;;0;0;0;0;0;0;0;0;;-188;-255;-536;952;1632;188;-525;170;;2019;0;;0;0;0;0;-2;4;-1;0;0;0;0;0;0;0;0;0;0;0;0;93;;357;93;2058;39986;54064;0;0;0;0;154;357;357;-1;;0;104;44;-102;-50;979;-22;11;-3;614;5178;10845;94;16;-15;-15;13;-1;81;;-15;-6;-6;;482;147;-190;;50;0;140;1068;0;952;;463;8;-179;;358;358;203;150;-4;-6;-990;-626;9931;25;13;;;21
13:43:17.888;0;7;9;-1;;8;;1504;1853;634;;-22;-108;-1;0;-17;5;;-2;281;3459;3740;;1;160;139;160;174;;155;-114;170;-113;;-2;-1;-11;-28;;0;0;0;0;;1;1;5;11;17;-46429;-29610;;6;8;39;67;;1;0;53;45;99;-168;-7394;-2396;-296;-216;77;110;-7;;178;22;15;;-162;255;-460;1068;1307;84;-477;138;;0;0;0;0;0;0;0;0;;-187;-255;-536;952;1632;188;-525;170;;2019;0;;0;0;0;0;-4;-6;-30;0;0;0;0;0;0;0;0;0;0;0;1;172;;357;93;2058;39986;54064;0;0;0;0;154;357;357;-1;;0;104;44;-98;-61;985;4;-11;6;173;1771;10156;24;-3;-2;-8;6;-4;82;;6;-10;-20;;493;90;-189;;50;0;140;1068;0;952;;474;-49;-178;;0;359;253;119;-4;-6;-986;-622;9932;26;13;;;22
13:43:17.980;0;7;9;-1;;16;;1504;1853;634;;-22;-106;-1;0;-17;5;;235;294;3565;3859;;1;160;138;160;174;;155;-114;170;-113;;255;-255;255;-255;;486;-357;527;-360;;114;-122;248;-145;629;29377;-15875;;360;1071;898;983;;433;1288;1090;1192;4003;922;47473;11428;1899;1029;80;102;1;;114;86;103;;-162;168;-460;1045;1306;79;-464;138;;0;0;0;0;0;0;0;0;;-187;-107;-530;1039;1629;181;-523;170;;2083;0;;0;0;0;0;26;-27;-25;0;0;0;0;0;0;0;0;0;0;0;2;839;;357;93;2058;39986;54064;0;0;0;0;154;357;357;-1;;0;104;44;120;-48;968;145;1;-23;21555;5587;3561;191;11;-6;137;24;21;84;;79;486;-621;;500;-25;-182;;50;0;140;1045;0;1039;;480;-171;-171;;358;354;-245;115;-3;-6;-525;-516;9973;25;5;;;23
13:43:18.084;0;7;9;-1;;26;;1504;1853;634;;-21;-101;-1;0;-17;5;;978;1725;5446;7171;;1;160;138;160;173;;155;-114;171;-112;;121;-98;157;-88;;486;-357;533;-354;;425;-318;483;-319;1545;29377;-15875;;631;728;780;691;;447;594;796;525;2362;-18;47473;11428;1549;1390;39;-72;1;;104;96;164;;-162;255;-457;1040;1304;73;-474;141;;0;0;0;0;0;0;0;0;;-186;150;-528;1160;1627;167;-528;161;;2199;0;;0;0;0;0;135;263;-419;0;0;0;0;0;0;0;0;0;0;0;7;1379;;357;93;2058;39986;54064;0;0;0;0;154;357;357;-1;;0;104;44;99;-51;1001;48;8;54;5284;7569;3209;188;4;-5;276;14;-15;86;;201;774;-971;;452;317;-188;;50;0;140;1040;0;1160;;431;161;-175;;10;12;894;251;-2;-5;-454;-405;9981;21;4;;;24
13:43:18.218;0;7;9;-1;;38;;1504;1853;634;;-19;-86;-1;0;-17;4;;1805;3084;6917;10001;;1;160;141;160;171;;155;-114;168;-114;;36;-1;65;-30;;486;-357;536;-351;;471;-356;504;-336;1667;76417;17870;;266;127;127;158;;134;119;198;127;579;-258;38726;15439;1015;583;19;-146;1;;84;116;168;;-162;255;-457;1088;1303;72;-462;142;;0;0;0;0;0;0;0;0;;-185;-255;-525;1112;1625;155;-518;153;;2199;0;;0;0;0;0;309;1049;-1383;224;301;175;61;0;0;0;0;0;0;0;-11;1933;;357;93;2058;39986;54064;0;0;0;0;154;357;357;-1;;0;104;44;-266;-50;1024;-121;8;-14;14901;13428;5580;-351;4;76;-85;4;38;89;;-270;-227;-892;;516;99;-180;;50;0;140;1088;0;1112;;495;-55;-168;;8;5;-581;278;-3;-6;-1271;-517;9905;25;18;;;25
13:43:18.285;0;7;9;-1;;53;;1504;1853;634;;-16;-63;-1;0;-17;1;;2632;3476;7202;10678;;1;160;141;160;171;;154;-115;150;-128;;36;-1;65;-30;;486;-357;536;-351;;471;-356;504;-336;1667;51853;47775;;266;127;127;158;;134;119;198;127;579;-258;25375;6482;1015;583;19;-146;1;;84;116;168;;-162;255;-457;1088;1303;72;-462;136;;0;0;0;0;0;0;0;0;;-185;-255;-525;1112;1625;155;-518;153;;2199;0;;0;0;0;0;172;1434;-2521;0;0;0;0;0;0;0;0;0;0;0;-42;1538;;357;93;2058;39986;54064;0;0;0;0;154;357;357;-1;;0;104;44;-123;-84;1023;143;-34;-1;21606;16685;5856;-254;-26;41;-136;-15;52;90;;-42;-394;-648;;486;236;-181;;50;0;140;1088;0;1112;;465;82;-169;;9;9;55;208;-3;-6;-1141;-589;9917;29;16;;;26
13:43:18.380;0;7;9;-1;;71;;1504;1853;634;;-13;-40;0;0;-17;-1;;3414;3868;7487;11355;;1;160;136;160;171;;153;-115;141;-135;;119;-63;134;-92;;486;-357;527;-357;;444;-338;455;-323;1560;730;41229;;468;261;257;331;;289;101;202;169;762;-77;-20989;8038;-840;723;22;-99;1;;89;111;133;;-161;-247;-457;915;1302;75;-456;136;;0;0;0;0;0;0;0;0;;-184;-255;-522;1101;1623;144;-516;153;;2016;0;;0;0;0;0;-115;422;-2863;0;0;0;0;0;0;0;0;0;0;0;-50;2370;;269;61;1894;42151;53275;0;0;0;0;148;269;12;-1;;0;104;44;-134;-63;949;-51;44;-22;5021;11299;8014;82;-27;-92;-242;-36;9;92;;-276;-35;-787;;512;29;-182;;50;0;140;915;0;1101;;492;-116;-170;;10;5;-253;175;-4;-6;-1095;-751;9912;29;17;;;27
13:43:18.491;0;7;9;-1;;91;;1504;1853;634;;-12;-38;0;0;-17;-4;;4197;4597;8074;12671;;1;160;136;160;174;;152;-116;123;-149;;98;-66;116;-97;;480;-360;442;-423;;444;-339;383;-372;1560;730;41229;;374;257;210;285;;231;100;155;164;762;-77;-20989;8038;-840;723;22;-99;1;;88;112;133;;-161;-242;-454;893;1300;79;-452;157;;0;0;0;0;0;0;0;0;;-183;126;-519;1105;1621;133;-524;154;;2016;0;;0;0;0;0;-992;-771;-3381;0;0;0;0;0;0;0;0;0;0;0;-82;3029;;269;61;1894;42151;53275;0;0;0;0;148;269;12;-1;;0;104;44;-106;-75;1008;-33;-53;14;4094;8596;10607;18;41;-3;-141;-10;12;94;;-669;303;-649;;488;269;-188;;50;0;140;893;0;1105;;468;125;-176;;13;13;397;165;-6;-6;-1106;-984;9890;38;21;;;28
13:43:18.570;0;4;1;-1;;0;;1504;1853;634;;-13;-40;0;0;-17;-5;;804;631;495;1126;;0;160;147;160;174;;152;-116;125;-147;;72;-22;57;-50;;476;-363;385;-467;;451;-352;372;-448;1537;-6452;18307;;304;90;217;253;;149;29;89;92;651;-68;-83050;3071;-3322;276;21;-89;1;;109;91;11;;-161;255;-454;980;1299;73;-464;159;;0;0;0;0;0;0;0;0;;-182;-13;-516;1179;1619;124;-512;154;;1997;0;;0;0;0;0;-1;0;-2;0;0;0;0;0;0;0;0;0;0;0;0;2;;269;61;1894;42151;53275;0;0;0;0;148;269;12;-1;;0;104;44;-100;-93;978;6;-18;-30;1260;4527;11039;-2;6;29;-66;-23;-22;95;;-824;335;-531;;494;125;-175;;50;0;140;980;0;1179;;474;-19;-163;;13;9;1;122;-7;-7;-1181;-1211;9856;46;28;;;29
13:43:18.671;0;4;1;-1;;2;;1504;1698;613;;-16;-60;0;0;17;31;;1607;1025;965;1990;;0;160;151;160;172;;15;-15;160;160;;72;-22;57;-50;;476;-363;385;-467;;451;-352;372;-448;1624;3225;292;;304;90;217;253;;149;29;89;92;361;-128;-39312;-6926;-1572;-623;15;-99;1;;109;91;-76;;-160;255;-454;980;1299;73;-464;149;;0;0;0;0;0;0;0;0;;-181;-13;-516;1179;1619;124;-512;146;;2159;0;;0;0;0;0;-78;15;-54;0;0;0;0;0;0;0;0;0;0;0;0;56;;269;61;1894;42151;53275;0;0;0;0;148;269;12;-1;;0;104;44;-87;-111;949;14;-19;-44;2493;3100;12099;-9;-78;-42;97;-37;-59;97;;-1056;100;-455;;510;173;-175;;50;0;140;980;0;1179;;489;18;-162;;16;12;142;51;-11;-7;-1135;-1703;9788;61;39;;;30
13:43:18.776;0;4;1;-1;;6;;1504;1698;613;;-18;-71;-1;-1;17;34;;1816;1419;1435;2854;;0;160;146;160;171;;15;-15;160;160;;0;0;83;0;;47;-47;501;501;;109;-100;457;-96;1587;2482;-943;;69;31;230;76;;22;1;100;20;263;-108;-10326;-16244;-413;-1462;13;-92;2;;151;49;-46;;-160;255;-451;1155;1298;101;-463;121;;0;0;0;0;0;0;0;0;;-181;-68;-511;1345;1615;134;-508;164;;2221;0;;0;0;0;0;-263;3;-144;0;0;0;0;0;0;0;0;0;0;0;0;173;;269;61;1894;42151;53275;0;0;0;0;148;269;12;-1;;0;104;44;-184;-155;977;-38;-11;25;2190;2150;10126;-85;-70;-14;-221;-107;-15;100;;-259;363;-298;;512;261;-175;;50;0;140;1155;0;1345;;487;82;-160;;10;9;90;132;-12;-8;-1927;-1963;9614;66;64;;;31
13:43:18.888;0;4;1;-1;;13;;1504;1698;613;;-14;-49;-1;-1;17;35;;2025;1520;1742;3261;;0;160;121;160;166;;15;-15;160;160;;0;0;83;0;;47;-47;501;501;;109;-100;457;-96;762;-43132;-15466;;69;31;230;76;;22;1;100;20;143;-128;-16246;-14973;-650;-1348;14;-73;2;;151;49;362;;-161;255;-451;1155;1298;101;-463;128;;0;0;0;0;0;0;0;0;;-180;-68;-511;1345;1615;134;-508;130;;2500;0;;0;0;0;0;-326;-32;-228;0;0;0;0;0;0;0;0;0;0;0;-1;379;;269;61;1894;42151;53275;0;0;0;0;148;269;12;-1;;0;104;44;-53;-162;1032;266;9;-72;76021;32408;9409;70;-18;29;-139;-137;-34;102;;-18;337;-58;;494;329;-175;;50;0;140;1236;0;1454;;467;136;-159;;18;14;398;118;-11;-12;-1714;-1844;9678;64;62;;;32
13:43:18.979;0;4;1;-1;;23;;1504;1698;613;;-14;-45;0;0;17;29;;2106;1620;2048;3668;;0;160;125;160;166;;15;-15;160;160;;21;-12;86;110;;47;-47;501;501;;37;-44;469;442;827;-38029;-22845;;18;17;435;549;;3;1;316;435;1449;918;13780;-15840;551;-1426;42;81;592;;193;7;726;;-160;-255;-454;1141;1297;107;-434;118;;0;0;0;0;0;0;0;0;;-179;255;-508;1536;1614;181;-518;118;;2689;0;;0;0;0;0;-175;97;-223;0;0;0;0;0;0;0;0;0;0;0;4;970;;269;61;1894;42151;53275;0;0;0;0;148;269;12;-1;;0;104;44;-98;-143;959;-45;19;-73;7715;40603;6239;232;14;14;-67;-90;-28;103;;-92;351;-57;;524;143;-175;;50;0;140;1141;0;1536;;497;-50;-159;;16;12;-132;161;-11;-11;-1672;-1793;9695;63;54;;;33
13:43:19.080;0;4;1;-1;;35;;1504;1698;613;;2;67;0;0;17;19;;2188;1655;3033;4688;;0;160;118;160;163;;15;-15;160;160;;21;-12;86;110;;47;-47;501;501;;37;-44;469;442;993;11542;-20242;;18;17;435;549;;3;1;316;435;754;-54;19722;-24000;789;-2160;28;-9;592;;193;7;911;;-162;-255;-454;1141;1297;107;-434;129;;0;0;0;0;0;0;0;0;;-179;255;-508;1536;1614;181;-518;110;;2676;0;;0;0;0;0;-20;147;-96;0;0;0;0;0;0;0;0;0;0;0;-1;1292;;269;61;1894;42151;53275;0;0;0;0;148;269;12;-1;;0;104;44;-193;-167;941;4;-9;2;101;26919;16809;-57;-1;4;-38;-55;-22;105;;7;-157;7;;542;142;-168;;50;0;140;1141;0;1536;;515;-53;-152;;8;5;-329;126;-10;-10;-1776;-1751;9684;60;55;;;34
13:43:19.181;0;4;1;-1;;49;;1504;1698;613;;13;142;0;0;17;9;;2265;1691;4017;5708;;0;160;110;160;163;;15;-15;160;160;;21;-29;39;49;;47;-47;501;501;;41;-37;487;485;1050;11155;-8441;;69;78;114;302;;7;11;84;157;259;-229;6025;-9629;241;-867;16;-80;566;;148;52;972;;-162;215;-451;1397;1297;143;-453;99;;0;0;0;0;0;0;0;0;;-179;-255;-505;1088;1612;176;-493;156;;2484;0;;0;0;0;0;-37;-344;-90;0;0;0;0;0;0;0;0;0;0;0;-20;1507;;269;61;1894;42151;53275;0;0;0;0;148;269;12;-1;;0;104;44;-133;-150;955;-8;1;5;90;4659;20281;1;-3;1;99;2;-10;107;;23;-606;-93;;512;251;-161;;50;0;140;1397;0;1088;;490;83;-149;;11;10;238;134;-10;-8;-1350;-1679;9765;58;43;;;35
13:43:19.282;0;4;0;25;NOT_braquage_EnCours;67;;1504;1698;613;;21;188;1;0;17;-3;;2347;1839;4432;6271;;0;160;99;160;167;;0;0;0;0;;11;-31;220;171;;47;-47;501;501;;46;-36;400;420;902;-4510;5044;;70;119;1034;573;;5;20;1090;494;1608;466;17412;5699;696;513;42;103;-258;;179;21;820;;-173;-255;-457;1139;1296;132;-438;130;;0;0;0;0;0;0;0;0;;-178;138;-505;1260;1610;162;-502;138;;2398;0;;0;0;0;0;366;-1038;-1337;0;0;0;0;0;0;0;0;0;0;0;46;2789;;269;61;1894;42151;53275;0;0;0;0;148;269;12;-1;;0;104;44;-195;-195;984;-54;-52;34;6776;2413;20191;-8;-19;34;124;-1;12;109;;325;191;-1212;;530;77;-175;;50;0;140;1139;0;1260;;507;-93;-161;;6;2;-391;133;-9;-7;-1405;-1556;9778;51;41;;;36
13:43:19.392;0;7;9;-1;;0;;1504;1698;613;;21;176;1;0;17;-4;;29;188;1607;1795;;1;160;117;160;168;;0;0;0;0;;0;-8;0;0;;0;0;0;0;;28;-1;19;245;294;-37801;-11560;;17;95;220;775;;1;7;218;99;325;-221;-13926;3058;-557;275;33;26;-5;;180;20;265;;-172;147;-488;1489;1298;169;-481;88;;0;0;0;0;0;0;0;0;;-178;-51;-502;1239;1609;150;-493;140;;2728;0;;0;0;0;0;1;-3;-6;0;0;0;0;0;0;0;0;0;0;0;0;12;;170;142;1927;50564;50595;0;0;0;0;93;170;10;-1;;0;104;44;-87;-227;964;35;-171;-79;36707;20571;20301;72;-12;35;66;8;46;112;;67;88;19;;518;335;-175;;50;0;140;1489;0;1239;;493;149;-161;;14;14;364;112;-8;-7;-1141;-1514;9819;47;34;;;37
13:43:19.490;0;7;9;-1;;3;;1504;1698;613;;21;169;1;0;17;-4;;25;300;2602;2902;;1;160;88;160;163;;114;-155;115;-167;;4;0;33;0;;0;0;0;0;;6;10;-7;15;37;-43267;-26671;;18;15;27;162;;1;1;48;20;70;-167;-13030;546;-521;49;43;98;7;;171;29;8;;-179;-2;-485;1599;1299;207;-477;74;;0;0;0;0;0;0;0;0;;-177;30;-502;1199;1607;138;-497;144;;2798;0;;0;0;0;0;-6;2;1;0;0;0;0;0;0;0;0;0;0;0;0;84;;170;142;1927;50564;50595;0;0;0;0;93;170;10;-1;;0;104;44;-112;-153;975;-26;-40;-19;2637;22495;23672;-50;-61;12;79;20;48;114;;8;-4;36;;518;77;-181;;50;0;140;1599;0;1199;;493;-111;-167;;7;3;-550;207;-8;-6;-1095;-1468;9831;51;32;;;38
13:43:19.597;0;7;9;-1;;8;;1504;1698;613;;20;161;1;0;17;-4;;325;333;2792;3125;;1;160;74;160;161;;114;-155;115;-167;;255;-255;255;-255;;357;-486;360;-523;;152;-148;148;-264;712;20918;-15407;;974;920;885;777;;1172;1108;1074;939;4293;1383;65285;21167;2611;1905;78;346;1;;93;107;-116;;-186;32;-505;1648;1301;233;-489;68;;0;0;0;0;0;0;0;0;;-176;-255;-499;973;1604;153;-485;167;;2621;0;;0;0;0;0;-16;-10;25;0;0;0;0;29;22;20;0;0;0;0;2;480;;170;142;1927;50564;50595;0;0;0;0;93;170;10;-1;;0;104;44;89;-137;1010;1;7;37;1419;18949;15135;210;60;28;212;7;39;116;;-148;169;432;;506;86;-182;;50;0;140;1648;0;973;;484;-84;-171;;13;8;252;160;-9;-4;-395;-1512;9877;54;24;;;39
13:43:19.691;0;7;9;-1;;15;;1503;1827;660;;20;155;1;0;17;-3;;838;2227;4454;6680;;1;160;68;160;164;;114;-155;116;-166;;255;-255;255;-119;;357;-486;360;-523;;189;-324;262;-476;1252;60749;11176;;627;724;1096;821;;989;1093;1534;649;4265;126;92812;35291;3712;3176;58;84;1;;117;83;-214;;-189;-244;-525;1771;1304;263;-520;54;;0;0;0;0;0;0;0;0;;-176;60;-496;1035;1602;150;-495;167;;2806;0;;0;0;0;0;-143;22;274;214;286;172;57;57;57;57;74;49;50;0;2;935;;170;142;1927;50564;50595;0;0;0;0;93;170;10;-1;;0;104;44;-30;-160;1001;0;-3;-23;538;11887;12270;18;-11;41;167;-13;34;118;;-261;141;575;;500;299;-168;;50;0;140;1771;0;1035;;477;117;-156;;16;15;340;124;-10;-2;-399;-1699;9847;58;29;;;40
13:43:19.807;0;7;9;-1;;25;;1503;1827;660;;20;149;1;0;17;-3;;1602;3578;6371;9949;;1;160;54;160;161;;114;-155;115;-167;;56;-97;72;-136;;357;-486;363;-520;;325;-439;329;-469;1562;42480;37509;;461;459;510;601;;319;429;480;515;1744;-204;70322;30280;2813;2725;33;-63;1;;109;91;-140;;-197;-255;-533;1715;1307;267;-516;60;;0;0;0;0;0;0;0;0;;-175;-255;-496;1086;1600;141;-481;161;;2801;0;;0;0;0;0;-223;86;617;0;0;0;0;91;77;71;83;89;69;0;-4;1224;;170;142;1927;50564;50595;0;0;0;0;93;170;10;-1;;0;104;44;-137;-174;961;-119;11;17;14571;7061;15086;-176;-41;-71;48;-55;-36;120;;304;-185;836;;524;335;-174;;50;0;140;1715;0;1086;;500;151;-161;;16;16;42;71;-9;-2;-556;-1649;9847;55;29;;;41
13:43:19.916;0;7;9;-1;;38;;1503;1827;660;;20;141;1;0;17;-3;;2393;4498;7483;11981;;1;160;58;160;161;;114;-155;116;-166;;40;-86;41;-83;;357;-486;360;-523;;340;-451;343;-493;1628;18783;40309;;126;262;139;373;;88;192;123;249;652;-223;-13850;16716;-554;1504;20;-132;1;;114;86;-150;;-197;255;-556;1853;1310;283;-558;44;;0;0;0;0;0;0;0;0;;-174;103;-494;1582;1600;191;-505;156;;3434;0;;0;0;0;0;27;-164;1264;0;0;0;0;0;0;0;0;0;0;0;-19;1643;;170;142;1927;50564;50595;0;0;0;0;93;170;10;-1;;0;104;44;-124;-135;999;37;40;36;4265;4795;16017;-132;24;6;-116;-35;-17;122;;183;-979;623;;533;408;-187;;50;0;140;1853;0;1582;;502;173;-169;;15;16;2;36;-9;-1;-445;-1465;9882;52;23;;;42
13:43:20.013;0;7;9;-1;;53;;1503;1827;660;;20;137;1;0;17;-3;;3192;4886;7995;12881;;1;160;44;160;151;;114;-155;118;-164;;27;-72;33;-110;;357;-486;363;-520;;348;-456;348;-479;1628;18783;40309;;79;200;27;315;;28;106;29;213;652;-223;-13850;16716;-554;1504;20;-132;2;;120;80;-150;;-202;255;-556;1774;1313;277;-557;44;;0;0;0;0;0;0;0;0;;-174;-255;-491;2512;1607;461;-482;105;;3434;0;;0;0;0;0;560;-1300;1845;0;0;0;0;0;0;0;0;0;0;0;-37;2282;;170;142;1927;50564;50595;0;0;0;0;93;170;10;-1;;0;104;44;-74;-159;975;16;-45;30;3181;5422;17079;79;36;4;-201;6;-36;124;;233;-757;658;;524;257;-195;;50;0;140;1774;0;2512;;480;-58;-168;;21;15;90;118;-7;0;-157;-1358;9906;46;18;;;43
13:43:20.103;0;7;9;-1;;71;;1503;1827;660;;18;126;1;0;17;-3;;4008;5227;8508;13735;;1;160;20;160;137;;114;-155;116;-165;;11;-67;64;-40;;357;-486;370;-514;;353;-462;353;-498;1631;3453;22130;;27;171;175;108;;7;75;58;63;376;-131;-114468;9735;-4579;876;15;-132;1;;118;82;-131;;-202;-255;-570;1759;1315;266;-562;53;;0;0;0;0;0;0;0;0;;-220;-147;-491;2942;1616;659;-473;20;;4285;0;;0;0;0;0;708;-2777;2382;0;0;0;0;0;0;0;0;0;0;0;-67;3490;;170;142;1927;50564;50595;0;0;0;0;93;170;10;-1;;0;104;44;-82;-120;993;-4;18;39;1861;2944;12134;38;2;-1;-49;46;-25;126;;61;-422;805;;524;167;-216;;50;0;140;1759;0;2942;;474;-186;-185;;10;3;-522;171;-8;0;-118;-1306;9914;47;17;;;44
13:43:20.208;0;7;9;52;bfm_limite;91;;1503;1827;660;;19;124;1;0;17;-1;;4824;5425;8790;14216;;1;160;20;160;131;;114;-154;122;-157;;11;-67;64;-40;;357;-486;370;-514;;353;-462;353;-498;1667;1965;8990;;27;171;175;108;;7;75;58;63;204;-99;-94905;-1514;-3796;-136;11;-128;1;;118;82;-145;;-202;-255;-570;1759;1315;266;-562;55;;0;0;0;0;0;0;0;0;;-220;-147;-491;2942;1616;659;-473;20;;4700;0;;0;0;0;0;-79;-1949;3326;0;0;0;0;0;0;0;0;0;0;0;-106;4720;;170;142;1927;50564;50595;0;0;0;0;93;170;10;-1;;0;104;44;-33;-105;993;18;3;36;1629;1994;8233;44;55;16;55;77;25;128;;-259;-116;660;;506;289;-222;;50;0;140;1759;0;2942;;456;-64;-191;;14;9;343;188;-8;-1;-151;-1343;9908;50;18;;;45
13:43:20.304;0;8;4;-1;;0;;1503;1827;660;;19;121;1;0;17;-2;;799;198;283;481;;1;160;20;160;131;;114;-154;120;-161;;40;-72;38;-103;;357;-483;382;-492;;341;-458;372;-453;1624;-343;1637;;60;184;97;258;;13;77;29;138;257;-43;-34207;-15105;-1368;-1359;13;-93;2;;119;81;-81;;-202;37;-570;1783;1318;256;-560;52;;0;0;0;0;0;0;0;0;;-244;-255;-621;4490;1646;1117;-580;20;;6273;0;;0;0;0;0;0;-1;7;0;0;0;0;0;0;0;0;0;0;0;0;14;;180;57;1879;45964;46990;0;0;0;0;352;180;10;-1;;0;104;44;-51;-168;965;0;-37;9;1450;1942;4600;25;-48;-23;101;17;-3;130;;315;5;550;;520;433;-243;;50;0;140;1783;0;4490;;448;-60;-196;;8;4;-184;139;-7;-1;-281;-1309;9910;43;17;;;46
13:43:20.407;0;8;4;-1;;2;;1503;1827;660;;18;114;1;1;-17;-36;;1582;442;638;1079;;1;20;20;160;105;;18;-15;1;-28;;60;-81;23;-55;;357;-483;376;-505;;330;-453;369;-480;1632;-343;1637;;143;178;33;129;;43;83;9;61;197;-50;-34207;-15105;-411;-1803;11;-88;1;;67;133;-111;;-202;-255;-570;2031;1323;275;-554;52;;0;0;0;0;0;0;0;0;;-255;-255;-688;4527;1673;1309;-621;20;;6558;0;;0;0;0;0;11;-9;79;0;0;0;0;0;0;0;0;0;0;0;0;171;;180;57;1879;45964;46990;0;0;0;0;352;180;12;-1;;0;104;44;-105;-123;1006;-5;1;58;3390;2693;3496;-77;-12;7;-4;-1;19;132;;266;-52;609;;524;407;-237;;50;0;140;2031;0;4527;;450;-102;-190;;14;8;235;130;-6;-2;-530;-1101;9925;39;15;;;47
13:43:20.504;0;8;4;-1;;7;;1503;1827;660;;17;108;1;1;-17;-35;;2364;762;800;1562;;1;20;20;160;100;;18;-15;1;-28;;60;-81;23;-55;;357;-483;376;-505;;330;-453;369;-480;1632;-1744;20;;143;178;33;129;;43;83;9;61;197;-50;-10286;-20028;-411;-1803;11;-88;1;;67;133;-111;;-202;-255;-570;2031;1323;275;-554;22;;0;0;0;0;0;0;0;0;;-255;-255;-688;4527;1673;1309;-621;20;;6558;0;;0;0;0;0;89;-22;208;0;0;0;0;0;0;0;0;0;0;0;0;513;;180;57;1879;45964;46990;0;0;0;0;352;180;12;-1;;0;104;44;-425;-79;907;-345;35;-87;127819;27627;3429;-291;75;-28;-195;22;-16;134;;435;627;477;;533;342;-244;;50;0;140;2031;0;4527;;459;-167;-197;;13;6;-121;91;-5;-4;-1466;-909;9850;34;29;;;48
13:43:20.601;0;8;4;-1;;15;;1503;1827;660;;16;98;1;1;-17;-34;;2524;1083;962;2045;;1;20;20;160;100;;18;-15;1;-28;;0;-19;0;-11;;56;-47;3;-87;;83;-76;53;-118;331;-64659;-26350;;29;57;15;37;;9;22;2;14;46;-118;-6661;-32615;-266;-2935;12;-69;0;;76;124;-65;;-214;-255;-570;2183;1329;306;-536;20;;0;0;0;0;0;0;0;0;;-255;-255;-720;4306;1696;1355;-625;20;;6488;0;;0;0;0;0;181;63;190;0;0;0;0;0;0;0;0;0;0;0;-1;963;;180;57;1879;45964;46990;0;0;0;0;352;180;12;-1;;0;104;44;-91;-20;1024;340;136;40;135696;55930;2780;-129;66;10;-279;47;24;136;;-140;-95;-150;;518;371;-237;;50;0;140;2183;0;4306;;447;-126;-192;;10;5;-64;54;-5;-12;-1769;-756;9813;48;35;;;49
13:43:20.702;0;8;4;-1;;24;;1501;3084;495;;15;89;0;0;-17;-33;;2605;1169;1015;2184;;1;20;20;160;102;;18;-15;1;-28;;32;-30;13;-11;;56;-47;3;-87;;43;-39;3;-86;170;-73111;-42874;;36;71;6;28;;7;14;1;4;27;-80;-5649;-46676;-226;-4201;13;-55;0;;48;152;-83;;-224;-255;-604;2895;1342;473;-567;20;;0;0;0;0;0;0;0;0;;-255;-255;-720;4236;1718;1345;-602;20;;7130;0;;0;0;0;0;191;149;73;0;0;0;0;0;0;0;0;0;0;0;-3;1762;;180;57;1879;45964;46990;0;0;0;0;352;180;12;-1;;0;104;44;-49;-155;942;-66;-111;-23;17206;61667;13679;480;-16;20;-43;60;6;138;;151;11;-9;;530;478;-237;;50;0;140;2895;0;4236;;456;-48;-192;;13;8;163;62;-4;-8;-1198;-902;9887;35;22;;;50
13:43:20.804;0;8;4;-1;;36;;1501;3084;495;;14;83;0;0;-17;-32;;2698;1277;1049;2325;;1;20;20;160;91;;18;-15;1;-28;;18;-13;3;-13;;56;-47;3;-87;;51;-42;2;-82;177;-7671;-43554;;68;40;2;34;;7;5;0;3;16;-60;-6532;-32591;-261;-2933;9;-71;0;;51;149;-80;;-255;-255;-632;3257;1359;621;-618;20;;0;0;0;0;0;0;0;0;;-255;-255;-720;4113;1738;1298;-605;20;;7369;0;;0;0;0;0;155;1;-68;0;0;0;0;0;0;0;0;0;0;0;-9;2735;;180;57;1879;45964;46990;0;0;0;0;352;180;12;-1;;0;104;44;-88;-79;992;-6;33;25;1750;34787;26726;-37;-74;-25;114;28;4;140;;-113;-79;73;;518;371;-237;;50;0;140;3257;0;4113;;444;-162;-193;;15;8;1;69;-6;-6;-1058;-934;9900;36;19;;;51
13:43:20.899;0;8;4;-1;;51;;1501;3084;495;;13;76;0;0;-17;-31;;2779;1385;1085;2470;;1;20;20;160;87;;18;-15;1;-28;;30;-24;4;-22;;56;-47;3;-87;;45;-37;1;-80;163;-362;-30923;;94;50;2;68;;15;7;0;8;29;-12;-3660;-13431;-146;-1209;13;-29;0;;66;134;-79;;-255;-255;-720;2934;1371;632;-632;20;;0;0;0;0;0;0;0;0;;-255;-255;-720;4003;1756;1232;-607;20;;6937;0;;0;0;0;0;47;-78;79;0;0;0;0;0;0;0;0;0;0;0;-8;3650;;180;57;1879;45964;46990;0;0;0;0;352;180;12;-1;;0;104;44;-63;-113;975;12;2;-22;632;4928;29332;-8;32;38;233;-13;17;142;;-7;-41;77;;518;377;-237;;50;0;140;2934;0;4003;;447;-130;-194;;14;7;8;54;-6;-6;-899;-1016;9907;36;18;;;52
13:43:21.012;130;8;4;-1;;68;;1501;3084;495;;12;70;0;0;-17;-30;;2863;1529;1156;2684;;1;20;20;160;94;;18;-15;1;-28;;28;-20;2;-22;;56;-47;3;-87;;46;-38;2;-80;166;-576;-3371;;94;36;2;93;;15;5;0;11;31;-2;-277;-5935;-11;-534;14;-23;1;;84;116;-78;;-255;-255;-720;2866;1382;618;-644;20;;0;0;0;0;0;0;0;0;;-255;-255;-720;3921;1773;1157;-611;20;;6786;0;;0;0;0;0;-40;-136;115;0;0;0;0;0;0;0;0;0;0;0;-11;4779;;180;57;1879;45964;46990;0;0;0;0;352;180;12;-1;;0;104;44;-64;-101;986;-13;2;-1;174;887;29451;29;-13;-9;169;-15;0;144;;-13;-44;60;;512;371;-237;;50;0;140;2866;0;3921;;443;-125;-195;;13;6;-39;26;-6;-5;-766;-1023;9918;38;16;;;53
13:43:21.167;0;8;4;-1;;88;;1501;3084;495;;11;63;0;0;-17;-29;;2948;1659;1251;2910;;1;20;20;160;97;;18;-15;1;-28;;30;-19;5;-32;;56;-47;3;-87;;44;-41;1;-76;161;-576;-3371;;85;38;2;92;;15;4;0;16;36;18;-277;-5935;13;-326;15;-10;1;;87;113;-74;;-255;-255;-720;2754;1392;587;-647;20;;0;0;0;0;0;0;0;0;;-255;-255;-720;3837;1790;1078;-613;20;;6591;0;;0;0;0;0;-67;-198;190;0;0;0;0;0;0;0;0;0;0;0;-18;6152;;180;57;1879;45964;46990;0;0;0;0;352;180;12;-1;;0;104;44;-56;-110;987;-5;-5;-4;66;154;28819;1;-7;2;18;22;29;147;;-9;-79;54;;500;365;-236;;50;0;140;2754;0;3837;;433;-118;-195;;13;7;-39;21;-6;-4;-627;-1066;9923;39;15;;;54
13:43:21.200;0;8;4;-1;;100;;1501;3084;495;;11;59;0;0;-17;-28;;3034;1782;1345;3127;;1;20;20;160;100;;18;-15;1;-28;;20;-25;4;-26;;56;-47;3;-87;;49;-36;1;-76;161;-58;-283;;79;50;2;78;;10;7;0;13;36;18;335;-3620;13;-326;15;-10;1;;77;123;-74;;-255;-255;-720;2619;1401;546;-650;20;;0;0;0;0;0;0;0;0;;-255;-255;-720;3707;1804;998;-622;20;;6591;0;;0;0;0;0;-113;-231;215;0;0;0;0;0;0;0;0;0;0;0;-10;6809;;180;57;1879;45964;46990;0;0;0;0;352;180;12;-1;;0;104;44;-56;-110;987;-5;-5;-4;66;154;28819;1;-7;2;18;22;29;147;;-9;-79;54;;500;365;-236;;50;0;140;2619;0;3707;;433;-118;-195;;13;7;-39;21;-6;-4;-627;-1066;9923;39;15;;;55
13:43:21.302;0;8;4;-1;;100;;1501;3084;495;;10;52;0;0;-17;-27;;3120;1910;1425;3335;;1;20;20;160;104;;18;-15;1;-28;;20;-25;4;-26;;56;-47;3;-87;;49;-36;1;-76;163;-141;-298;;79;50;2;78;;10;7;0;13;30;-28;349;-2428;14;-218;14;-23;1;;77;123;-75;;-255;-255;-720;2619;1401;546;-650;20;;0;0;0;0;0;0;0;0;;-255;-255;-720;3707;1804;998;-622;20;;6326;0;;0;0;0;0;-172;-247;212;0;0;0;0;0;0;0;0;0;0;0;-23;6534;;285;99;1740;41950;36004;0;0;0;0;345;285;12;-1;;0;104;44;-68;-114;981;0;-8;-2;68;81;17139;-17;-10;-12;1;-4;-8;150;;-63;-41;41;;506;330;-230;;50;0;140;2619;0;3707;;441;-135;-190;;13;8;62;26;-7;-3;-615;-1136;9916;40;16;;;56
13:43:21.401;0;8;4;-1;;100;;1501;3084;495;;9;47;0;0;-17;-27;;3201;2039;1504;3543;;1;20;20;160;108;;18;-15;1;-28;;28;-26;3;-31;;56;-47;3;-87;;45;-36;2;-75;158;-149;-111;;78;55;2;102;;12;8;0;17;38;71;163;-1920;7;-173;15;3;1;;88;112;-73;;-254;-255;-720;2485;1408;504;-651;20;;0;0;0;0;0;0;0;0;;-255;-255;-720;3631;1818;922;-624;20;;6116;0;;0;0;0;0;-166;-281;190;0;0;0;0;0;0;0;0;0;0;0;3;6354;;285;99;1740;41950;36004;0;0;0;0;345;285;12;-1;;0;104;44;-57;-114;982;11;0;1;122;83;3739;-2;-5;-4;-5;-11;-2;151;;-43;-59;23;;506;329;-230;;50;0;140;2485;0;3631;;443;-122;-191;;12;6;-124;40;-7;-3;-590;-1151;9916;42;16;;;57
13:43:21.501;0;8;4;-1;;100;;1501;3084;495;;8;41;0;0;-17;-26;;3292;2172;1608;3780;;1;20;20;160;108;;18;-15;1;-28;;32;-6;4;-31;;56;-47;3;-87;;43;-48;1;-77;169;300;34;;73;40;2;106;;13;3;0;19;35;-5;100;-870;4;-78;14;-12;1;;98;102;-76;;-254;-255;-717;2292;1414;467;-651;20;;0;0;0;0;0;0;0;0;;-255;-255;-720;3480;1830;850;-629;20;;5772;0;;0;0;0;0;-218;-272;210;0;0;0;0;0;0;0;0;0;0;0;-12;5992;;285;99;1740;41950;36004;0;0;0;0;345;285;12;-1;;0;104;44;-64;-114;985;2;-5;2;33;70;443;0;2;4;-6;-9;-5;154;;-32;-78;53;;488;317;-243;;50;0;140;2292;0;3480;;428;-111;-206;;12;7;49;26;-7;-3;-566;-1165;9916;42;16;;;58
13:43:21.602;0;8;4;-1;;100;;1501;3084;495;;8;39;0;0;-17;-25;;3381;2284;1716;4000;;1;20;20;160;113;;18;-15;1;-28;;28;-14;2;-40;;56;-47;3;-87;;45;-44;2;-72;164;255;102;;113;44;2;131;;18;3;0;28;49;366;330;124;13;11;17;35;2;;92;108;-71;;-254;-255;-717;2216;1419;435;-649;20;;0;0;0;0;0;0;0;0;;-255;-255;-720;3411;1841;784;-634;20;;5627;0;;0;0;0;0;-206;-297;208;0;0;0;0;0;0;0;0;0;0;0;35;5916;;285;99;1740;41950;36004;0;0;0;0;345;285;12;-1;;0;104;44;-56;-119;981;8;-5;-4;105;85;295;-3;-5;0;-3;-7;-4;155;;-51;-66;39;;488;317;-243;;50;0;140;2216;0;3411;;429;-101;-207;;12;6;-67;36;-7;-3;-547;-1187;9914;43;17;;;59
13:43:21.702;0;8;4;-1;;100;;1501;3509;518;;7;34;0;0;-17;-24;;3461;2441;1849;4290;;1;20;20;160;116;;18;-15;2;-28;;29;-29;2;-41;;56;-47;3;-87;;45;-34;3;-71;153;-784;-143;;122;33;2;120;;20;5;0;29;54;209;602;321;24;29;19;55;1;;88;112;-68;;-253;-255;-717;2185;1424;407;-647;20;;0;0;0;0;0;0;0;0;;-255;-255;-720;3166;1850;730;-640;20;;5351;0;;0;0;0;0;-217;-294;196;0;0;0;0;0;0;0;0;0;0;0;55;5629;;285;99;1740;41950;36004;0;0;0;0;345;285;12;-1;;0;104;44;-67;-114;976;0;-4;-2;20;104;117;-2;-2;-8;0;-1;-1;157;;-51;-58;22;;500;288;-237;;50;0;140;2185;0;3166;;445;-106;-203;;12;6;-24;16;-7;-3;-564;-1195;9912;43;17;;;60
13:43:21.805;0;8;4;-1;;100;;1501;3509;518;;7;29;0;0;-17;-24;;3545;2596;1971;4567;;1;20;20;160;120;;18;-15;2;-28;;29;-23;18;-38;;56;-47;6;-87;;45;-39;-3;-73;161;-152;-116;;122;54;2;152;;21;7;0;33;61;230;644;411;26;37;19;59;1;;93;107;-76;;-253;-255;-714;2026;1427;390;-644;23;;0;0;0;0;0;0;0;0;;-255;-255;-720;2955;1857;691;-641;20;;4980;0;;0;0;0;0;-236;-277;157;0;0;0;0;0;0;0;0;0;0;0;59;5309;;285;99;1740;41950;36004;0;0;0;0;345;285;12;-1;;0;104;44;-70;-115;972;-17;0;-22;773;321;97;3;-4;2;-4;-3;-4;160;;-40;-46;40;;494;305;-230;;50;0;140;2026;0;2955;;443;-62;-198;;10;6;-11;25;-7;-3;-548;-1211;9911;44;17;;;61
13:43:21.907;0;8;4;-1;;100;;1501;3509;518;;6;26;0;0;-17;-24;;3623;2771;2125;4896;;1;20;20;160;126;;18;-15;2;-28;;30;-32;-1;-40;;56;-47;6;-87;;45;-33;7;-72;157;177;-274;;131;71;2;190;;23;12;0;42;77;475;950;476;38;43;22;106;1;;97;103;-65;;-252;-255;-714;1944;1430;379;-643;33;;0;0;0;0;0;0;0;0;;-254;-255;-720;2835;1863;660;-646;20;;4779;0;;0;0;0;0;-216;-236;163;0;0;0;0;0;0;0;0;0;0;0;106;5173;;285;99;1740;41950;36004;0;0;0;0;345;285;12;-1;;0;104;44;-67;-111;988;-13;6;23;734;483;99;-12;2;0;3;-2;-5;162;;-37;-33;38;;489;278;-236;;50;0;140;1944;0;2835;;440;-74;-206;;10;5;-15;14;-7;-3;-554;-1210;9911;44;17;;;62
13:43:22.010;0;8;4;-1;;100;;1501;3509;518;;6;23;0;0;-17;-23;;3702;2973;2317;5290;;1;20;20;160;129;;18;-15;2;-28;;34;-26;6;-47;;56;-47;6;-87;;43;-36;5;-69;153;-358;-169;;130;67;2;217;;25;11;0;56;92;339;1087;640;43;58;25;136;2;;105;95;-64;;-251;-255;-711;1835;1433;376;-643;46;;0;0;0;0;0;0;0;0;;-254;-255;-717;2710;1868;637;-647;20;;4545;0;;0;0;0;0;-233;-239;165;0;0;0;0;0;0;0;0;0;0;0;136;4961;;285;99;1740;41950;36004;0;0;0;0;345;285;12;-1;;0;104;44;-57;-125;971;10;-14;-17;585;560;123;-2;-6;-12;2;-4;-7;163;;-84;-65;44;;488;281;-223;;50;0;140;1835;0;2710;;441;-43;-194;;11;7;62;18;-7;-3;-541;-1238;9908;45;18;;;63
13:43:22.109;0;8;4;-1;;100;;1501;3509;518;;5;20;0;0;-17;-23;;3786;3170;2536;5706;;1;20;20;160;133;;18;-15;2;-28;;29;-22;9;-48;;56;-47;6;-87;;45;-40;2;-68;153;-358;-169;;119;75;2;250;;21;10;0;68;92;339;1087;640;43;58;25;136;3;;113;87;-64;;-250;-255;-708;1771;1434;373;-645;46;;0;0;0;0;0;0;0;0;;-254;-255;-717;2566;1872;623;-643;20;;4545;0;;0;0;0;0;-292;-182;197;0;0;0;0;0;0;0;0;0;0;0;136;4961;;285;99;1740;41950;36004;0;0;0;0;345;285;12;-1;;0;104;44;-58;-119;1007;1;-2;43;1854;1083;268;6;-3;12;2;-3;14;166;;-55;-30;37;;500;257;-229;;50;0;140;1771;0;2566;;455;-62;-202;;10;6;-98;39;-7;-3;-542;-1246;9907;45;18;;;64
13:43:22.214;0;8;4;-1;;100;;1501;3509;518;;5;18;0;0;-17;-22;;3870;3364;2788;6152;;1;20;20;160;137;;18;-15;2;-28;;29;-22;9;-48;;56;-47;6;-87;;45;-40;2;-68;155;-93;-38;;119;75;2;250;;21;10;0;68;99;189;1216;780;49;70;25;122;3;;113;87;-66;;-249;-255;-705;1790;1436;361;-641;54;;0;0;0;0;0;0;0;0;;-254;-255;-717;2498;1875;608;-639;20;;4337;0;;0;0;0;0;-313;-177;180;0;0;0;0;0;0;0;0;0;0;0;122;4784;;285;99;1740;41950;36004;0;0;0;0;345;285;12;-1;;0;104;44;-49;-118;977;-8;7;17;402;1407;396;14;-9;-19;13;-6;-4;168;;-66;-32;43;;488;293;-224;;50;0;140;1790;0;2498;;443;-26;-197;;11;7;86;36;-7;-3;-490;-1280;9906;46;18;;;65
13:43:22.336;0;8;4;-1;;100;;1501;3509;518;;5;18;0;0;-17;-22;;3953;3559;3040;6599;;1;20;20;160;137;;18;-15;2;-28;;32;-24;7;-47;;56;-47;6;-87;;44;-38;4;-69;155;81;-130;;138;69;2;291;;25;10;0;78;113;274;1267;940;51;85;27;132;3;;117;83;-65;;-248;-255;-705;1790;1436;361;-641;51;;0;0;0;0;0;0;0;0;;-253;-255;-717;2498;1875;608;-639;20;;4288;0;;0;0;0;0;-280;-170;148;0;0;0;0;0;0;0;0;0;0;0;132;4788;;285;99;1740;32477;30135;0;0;0;0;345;285;12;-1;;0;104;44;-50;-118;992;5;8;13;258;1030;666;1;0;-4;12;-7;7;170;;-41;-52;26;;494;257;-229;;50;0;140;1676;0;2436;;450;-57;-202;;11;7;-55;32;-7;-3;-484;-1279;9906;46;18;;;66
13:43:22.424;0;8;4;-1;;100;;1501;3509;518;;5;17;0;0;-17;-22;;4030;3765;3334;7099;;1;20;20;160;137;;18;-15;2;-28;;33;-31;7;-50;;56;-47;6;-87;;43;-34;3;-68;149;-307;-144;;150;78;2;309;;28;13;0;88;130;323;1264;1062;51;96;30;156;2;;115;85;-65;;-247;-255;-703;1676;1438;358;-640;65;;0;0;0;0;0;0;0;0;;-252;-255;-717;2436;1879;591;-633;20;;4111;0;;0;0;0;0;-178;-135;76;0;0;0;0;0;0;0;0;0;0;0;156;4650;;431;97;1554;32477;30135;0;0;0;0;343;431;11;-1;;0;104;44;-38;-119;961;21;0;-37;1810;538;912;7;2;-5;11;-1;-1;172;;0;3;-13;;482;269;-236;;50;0;140;1676;0;2436;;440;-34;-210;;11;8;68;24;-7;-3;-474;-1262;9909;45;18;;;67
13:43:22.506;0;8;4;-1;;100;;1501;3509;518;;4;14;0;0;-17;-22;;4109;3993;3645;7638;;1;20;20;160;140;;18;-15;2;-28;;34;-28;6;-50;;56;-47;6;-87;;43;-36;3;-68;150;-256;-131;;154;69;2;348;;30;12;0;100;142;234;1291;1179;52;106;31;141;3;;122;78;-65;;-246;-255;-697;1702;1439;346;-654;65;;0;0;0;0;0;0;0;0;;-252;-255;-711;2378;1881;574;-637;20;;4080;0;;0;0;0;0;-160;-143;38;0;0;0;0;0;0;0;0;0;0;0;141;4653;;431;97;1554;32477;30135;0;0;0;0;343;431;11;-1;;0;104;44;-40;-121;1001;23;0;14;725;843;891;6;-3;3;7;-1;15;174;;-31;-28;3;;477;240;-229;;50;0;140;1702;0;2378;;435;-59;-204;;11;7;-50;26;-7;-3;-469;-1262;9909;46;18;;;68
13:43:22.613;0;8;4;-1;;100;;1501;3509;518;;4;12;0;0;-17;-21;;4188;4215;3994;8210;;1;20;20;160;141;;18;-15;3;-27;;35;-27;1;-51;;56;-47;6;-87;;43;-36;4;-68;151;109;-130;;168;80;2;364;;34;12;0;107;154;233;1376;1218;55;110;32;131;3;;119;81;-64;;-245;-255;-694;1654;1440;335;-658;68;;0;0;0;0;0;0;0;0;;-251;-255;-711;2341;1884;555;-639;24;;3995;0;;0;0;0;0;-131;-88;18;0;0;0;0;0;0;0;0;0;0;0;131;4610;;431;97;1554;32477;30135;0;0;0;0;343;431;11;-1;;0;104;44;-40;-127;967;14;-7;15;470;1382;967;2;-6;-9;2;-1;-3;176;;-37;-22;11;;482;275;-224;;50;0;140;1654;0;2341;;441;-18;-199;;12;9;77;27;-7;-3;-466;-1281;9907;46;18;;;69
13:43:22.709;0;8;4;-1;;100;;1500;2679;503;;4;14;0;0;-17;-21;;4269;4464;4361;8824;;1;20;22;160;142;;18;-15;3;-27;;32;-28;7;-48;;56;-47;9;-84;;45;-36;6;-66;153;146;-22;;175;84;2;343;;33;14;0;99;146;5;893;1166;36;105;31;85;2;;114;86;-60;;-244;-255;-691;1632;1441;324;-662;70;;0;0;0;0;0;0;0;0;;-250;-255;-708;2283;1886;536;-643;28;;3914;0;;0;0;0;0;-130;-47;24;0;0;0;0;0;0;0;0;0;0;0;85;4518;;431;97;1554;32477;30135;0;0;0;0;343;431;11;-1;;0;104;44;-59;-122;987;-5;-4;28;825;992;1032;-15;0;-8;0;0;-18;178;;-42;1;8;;482;266;-223;;50;0;140;1632;0;2283;;442;-21;-199;;12;8;-21;19;-7;-3;-506;-1274;9906;46;18;;;70
13:43:22.819;0;8;4;-1;;100;;1500;2679;503;;4;13;0;0;-17;-21;;4347;4722;4706;9428;;1;22;26;160;143;;20;-16;3;-31;;35;-30;16;-51;;56;-47;9;-84;;43;-35;1;-65;144;-345;-65;;187;95;2;390;;37;16;0;113;167;397;782;1145;31;103;34;134;3;;116;84;-65;;-242;-255;-688;1573;1442;315;-661;77;;0;0;0;0;0;0;0;0;;-249;-255;-705;2302;1888;510;-644;32;;3874;0;;0;0;0;0;-129;-39;6;0;0;0;0;0;0;0;0;0;0;0;134;4548;;431;97;1554;32477;30135;0;0;0;0;343;431;11;-1;;0;104;44;-55;-114;987;-3;17;37;1667;960;1107;-11;5;12;-4;-2;-16;180;;18;10;0;;476;215;-229;;50;0;140;1573;0;2302;;436;-71;-204;;10;6;-120;32;-7;-3;-519;-1265;9906;46;18;;;71
13:43:22.926;0;8;4;-1;;100;;1500;2679;503;;4;11;0;0;-17;-21;;4435;5004;5098;10102;;1;26;29;160;144;;23;-19;4;-35;;34;-28;6;-59;;62;-50;9;-97;;49;-39;7;-73;168;775;299;;205;93;2;466;;40;15;0;152;208;662;1459;1252;58;113;35;126;3;;122;78;-66;;-241;-255;-683;1724;1444;292;-665;59;;0;0;0;0;0;0;0;0;;-248;-255;-703;2254;1890;487;-643;32;;3978;0;;0;0;0;0;-127;-39;25;0;0;0;0;0;0;0;0;0;0;0;126;4744;;431;97;1554;32477;30135;0;0;0;0;343;431;11;-1;;0;104;44;-36;-122;954;19;6;-10;497;1043;814;17;1;-21;5;-2;-22;182;;-55;-33;19;;476;251;-229;;50;0;140;1724;0;2254;;436;-38;-205;;10;7;33;35;-8;-3;-481;-1304;9903;47;19;;;72
13:43:23.036;0;8;4;-1;;100;;1500;2679;503;;4;10;0;0;-17;-21;;4523;5302;5565;10867;;1;29;34;160;142;;27;-22;5;-40;;40;-30;12;-72;;72;-59;12;-109;;56;-47;7;-79;190;775;299;;247;107;2;479;;55;18;0;193;266;485;1459;1252;115;145;37;144;3;;122;78;-72;;-240;-255;-680;1667;1445;274;-660;59;;0;0;0;0;0;0;0;0;;-247;-255;-700;2181;1892;468;-644;37;;3848;0;;0;0;0;0;-147;-89;42;0;0;0;0;0;0;0;0;0;0;0;126;4744;;431;97;1554;32477;30135;0;0;0;0;343;431;11;-1;;0;104;44;-45;-130;946;5;-6;-18;385;715;1056;10;-11;-33;6;-5;-7;184;;-52;-39;20;;482;227;-216;;50;0;140;1667;0;2181;;442;-62;-192;;10;6;-40;21;-8;-3;-469;-1329;9900;47;19;;;73
13:43:23.110;0;8;4;-1;;100;;1500;2679;503;;4;10;0;0;-17;-21;;4642;5600;6033;11633;;1;36;36;160;144;;32;-26;6;-48;;46;-36;14;-55;;84;-69;15;-125;;65;-54;10;-102;190;2283;930;;273;132;3;523;;70;26;0;174;266;485;2863;1606;115;145;37;144;2;;113;87;-72;;-239;-255;-677;1608;1445;260;-660;66;;0;0;0;0;0;0;0;0;;-247;-255;-697;2190;1894;445;-644;44;;3848;0;;0;0;0;0;-269;-162;117;0;0;0;0;0;0;0;0;0;0;0;144;4684;;431;97;1554;32477;30135;0;0;0;0;343;431;11;-1;;0;104;44;-41;-120;993;4;10;47;2325;846;1098;8;3;20;8;-1;1;185;;-82;-44;40;;470;251;-216;;50;0;140;1608;0;2190;;431;-29;-193;;10;7;29;20;-8;-3;-444;-1327;9902;48;19;;;74
13:43:23.218;0;8;4;-1;;100;;1500;2679;503;;3;5;0;0;-17;-21;;4761;6005;6559;12564;;1;36;41;160;145;;32;-26;6;-48;;46;-36;14;-55;;84;-69;15;-125;;65;-54;10;-102;231;3153;2028;;273;132;3;523;;70;26;0;174;270;136;3477;1859;139;167;34;52;2;;113;87;-93;;-238;-255;-677;1608;1445;260;-660;73;;0;0;0;0;0;0;0;0;;-246;-255;-697;2190;1894;445;-644;43;;3797;0;;0;0;0;0;-332;-239;148;0;0;0;0;0;0;0;0;0;0;0;52;4729;;431;97;1554;32477;30135;0;0;0;0;343;431;11;-1;;0;104;44;-50;-128;1002;-16;3;52;2969;1432;912;-1;-3;28;16;-5;16;188;;-78;-66;34;;482;245;-217;;50;0;140;1608;0;2190;;443;-32;-193;;11;7;31;9;-8;-2;-380;-1368;9899;49;20;;;75
13:43:23.319;0;8;4;-1;;100;;1500;2679;503;;3;6;0;0;-17;-20;;4903;6411;7085;13496;;1;41;42;160;145;;37;-30;8;-55;;54;-39;11;-72;;100;-81;18;-150;;77;-65;14;-121;276;4320;3272;;319;157;5;612;;95;34;0;242;372;582;4717;2494;189;224;37;96;2;;113;87;-107;;-237;-255;-672;1527;1446;252;-656;83;;0;0;0;0;0;0;0;0;;-245;-255;-694;2170;1895;422;-644;43;;3697;0;;0;0;0;0;-359;-262;183;0;0;0;0;0;0;0;0;0;0;0;96;4790;;345;103;1381;27245;21319;0;0;0;0;340;345;11;-1;;0;104;44;-36;-126;942;-6;1;-32;1061;1339;936;-6;4;-6;14;-3;6;190;;-47;-54;47;;465;240;-229;;50;0;140;1527;0;2170;;427;-32;-206;;11;8;15;6;-8;-2;-340;-1387;9898;49;20;;;76
13:43:23.415;0;8;4;-1;;100;;1500;2679;503;;3;2;0;0;-17;-20;;5073;6887;7702;14589;;1;42;43;160;147;;39;-31;9;-57;;57;-43;15;-84;;116;-94;25;-172;;93;-77;18;-137;326;4707;4008;;377;182;13;725;;120;44;1;335;500;459;6894;3588;276;323;39;133;2;;114;86;-119;;-236;-255;-669;1655;1447;234;-655;68;;0;0;0;0;0;0;0;0;;-244;-255;-691;2167;1896;398;-645;46;;3822;0;;0;0;0;0;-445;-289;227;0;0;0;0;0;0;0;0;0;0;0;133;5119;;345;103;1381;27245;21319;0;0;0;0;340;345;12;-1;;0;104;44;-24;-126;976;33;7;-30;2038;2368;1152;10;-1;-8;8;-3;20;192;;-77;-24;30;;464;245;-223;;50;0;140;1655;0;2167;;425;-33;-200;;12;8;11;4;-8;-2;-328;-1405;9895;50;20;;;77
13:43:23.524;0;8;4;-1;;100;;1500;2679;503;;3;1;0;0;-17;-20;;5251;7446;8440;15885;;1;43;45;160;145;;39;-32;10;-57;;59;-47;9;-88;;122;-97;28;-178;;99;-79;26;-143;348;3576;4100;;430;220;27;768;;143;57;1;385;587;266;8724;4806;349;433;41;145;2;;110;90;-117;;-235;-255;-666;1512;1447;226;-649;85;;0;0;0;0;0;0;0;0;;-243;-255;-688;2189;1898;372;-644;43;;3700;0;;0;0;0;0;-443;-319;272;0;0;0;0;0;0;0;0;0;0;0;145;5146;;345;103;1381;27245;21319;0;0;0;0;340;345;12;-1;;0;104;44;-47;-141;956;0;-11;-57;3370;2594;1145;-5;-11;14;-10;-10;7;194;;-95;-48;41;;464;275;-223;;50;0;140;1512;0;2189;;426;2;-200;;13;10;99;26;-8;-2;-344;-1439;9890;50;21;;;78
13:43:23.617;0;8;4;-1;;100;;1500;2679;503;;2;-3;0;0;-17;-20;;5433;8096;9235;17331;;1;45;43;160;147;;41;-33;10;-59;;57;-46;23;-83;;122;-100;31;-178;;101;-82;22;-147;352;1303;3119;;410;250;29;857;;139;66;3;412;620;155;9141;5723;366;515;42;130;2;;115;85;-124;;-234;-255;-663;1524;1448;215;-646;83;;0;0;0;0;0;0;0;0;;-243;-255;-686;2159;1899;350;-641;46;;3682;0;;0;0;0;0;-401;-303;247;0;0;0;0;0;0;0;0;0;0;0;130;5229;;345;103;1381;27245;21319;0;0;0;0;340;345;12;-1;;0;104;44;-49;-127;978;-17;14;19;846;1680;1530;-14;-5;-20;-5;-7;2;196;;-97;-95;92;;458;245;-217;;50;0;140;1524;0;2159;;420;-26;-194;;13;9;-29;29;-9;-2;-335;-1445;9889;52;21;;;79
13:43:23.721;0;8;4;-1;;100;;1499;2528;363;;2;-3;0;0;-17;-19;;5622;8755;10121;18876;;1;43;45;160;147;;40;-32;11;-57;;57;-55;21;-90;;128;-103;31;-185;;106;-82;23;-151;362;715;1977;;406;271;31;1010;;137;83;4;510;734;312;8439;6763;338;609;45;164;3;;121;79;-128;;-233;-255;-660;1536;1448;203;-643;82;;0;0;0;0;0;0;0;0;;-242;-255;-686;2143;1901;328;-646;48;;3678;0;;0;0;0;0;-427;-386;339;0;0;0;0;0;0;0;0;0;0;0;164;5395;;345;103;1381;27245;21319;0;0;0;0;340;345;12;-1;;0;104;44;-36;-127;997;1;12;40;1745;1385;1937;7;12;32;-2;-6;3;198;;-145;-137;143;;458;263;-223;;50;0;140;1536;0;2143;;420;-7;-200;;14;11;66;19;-9;-2;-283;-1480;9886;53;22;;;80
13:43:23.819;0;8;4;-1;;100;;1499;2528;363;;2;-6;0;0;-17;-19;;5810;9432;11162;20593;;1;45;47;160;147;;41;-33;11;-59;;54;-45;29;-91;;125;-100;34;-178;;105;-83;22;-144;354;117;711;;371;268;41;1066;;122;73;6;558;760;154;6662;7188;266;647;46;147;3;;127;73;-122;;-232;-255;-657;1583;1449;188;-643;76;;0;0;0;0;0;0;0;0;;-241;-255;-683;2100;1902;309;-647;53;;3682;0;;0;0;0;0;-727;-553;616;0;0;0;0;0;0;0;0;0;0;0;147;5428;;345;103;1381;27245;21319;0;0;0;0;340;345;12;-1;;0;104;44;-29;-139;940;16;-4;16;528;1864;1789;13;-8;-44;9;-4;-55;200;;-149;-87;130;;459;278;-235;;50;0;140;1583;0;2100;;422;10;-212;;14;11;28;14;-9;-1;-264;-1560;9874;54;24;;;81
13:43:23.920;0;8;4;-1;;100;;1499;2528;363;;2;-6;0;0;-17;-19;;5999;10071;12269;22339;;1;47;50;160;147;;43;-35;13;-61;;57;-51;25;-92;;128;-103;34;-185;;106;-83;24;-149;362;12;314;;367;248;55;1178;;123;74;8;622;826;228;6184;7377;247;664;48;139;3;;133;67;-126;;-231;-255;-655;1488;1449;180;-639;76;;0;0;0;0;0;0;0;0;;-240;-255;-680;2106;1903;290;-647;53;;3593;0;;0;0;0;0;-664;-509;629;0;0;0;0;0;0;0;0;0;0;0;139;5443;;345;103;1381;27245;21319;0;0;0;0;340;345;12;-1;;0;104;44;-32;-153;956;-1;-4;-20;417;1913;1880;9;-26;-12;15;-14;-32;202;;-67;-66;90;;453;259;-218;;50;0;140;1488;0;2106;;416;-5;-195;;15;12;26;16;-9;-1;-246;-1599;9868;55;25;;;82
13:43:24.020;0;8;4;-1;;100;;1499;2528;363;;2;-7;0;0;-17;-19;;6187;10686;13502;24189;;1;50;52;160;149;;46;-37;13;-65;;57;-51;25;-92;;128;-103;34;-185;;106;-83;24;-149;362;12;314;;367;248;55;1178;;123;74;8;622;826;228;6184;7377;247;664;48;139;3;;133;67;-126;;-230;-255;-655;1488;1449;180;-639;88;;0;0;0;0;0;0;0;0;;-239;-255;-680;2106;1903;290;-647;52;;3593;0;;0;0;0;0;-358;-371;512;0;0;0;0;0;0;0;0;0;0;0;139;5443;;345;103;1381;27245;21319;0;0;0;0;340;345;12;-1;;0;104;44;-23;-139;977;1;2;1;6;1565;2107;5;-1;22;14;-16;-2;204;;-47;-69;99;;458;263;-229;;50;0;140;1488;0;2106;;421;-1;-206;;15;12;-25;23;-9;-1;-244;-1588;9870;55;25;;;83
13:43:24.120;0;8;4;-1;;100;;1499;2528;363;;2;-9;0;0;-17;-19;;6404;11302;14736;26038;;1;52;52;160;149;;47;-38;14;-67;;60;-49;23;-95;;144;-116;40;-203;;120;-96;31;-166;414;3016;1255;;389;251;59;1272;;134;73;8;693;907;287;6686;7480;267;673;47;92;4;;135;65;-135;;-229;-255;-652;1548;1450;167;-638;80;;0;0;0;0;0;0;0;0;;-238;-255;-677;2029;1903;277;-633;60;;3576;0;;0;0;0;0;-200;-332;450;0;0;0;0;0;0;0;0;0;0;0;92;5547;;345;103;1381;27245;21319;0;0;0;0;340;345;12;-1;;0;104;44;-38;-155;961;-15;-16;-16;737;634;2079;-2;1;-4;14;-24;-4;205;;9;-48;68;;458;293;-230;;50;0;140;1548;0;2029;;422;33;-208;;16;13;55;20;-9;-1;-242;-1569;9873;54;24;;;84
13:43:24.221;0;8;4;-1;;100;;1499;2528;363;;2;-8;0;0;-17;-19;;6625;11941;16067;28008;;1;52;57;160;149;;48;-38;14;-67;;62;-56;30;-104;;147;-119;43;-210;;123;-98;31;-171;422;3002;1809;;361;296;63;1387;;132;92;11;817;1052;419;7852;7911;314;712;50;135;4;;138;62;-139;;-228;-255;-649;1343;1449;177;-639;105;;0;0;0;0;0;0;0;0;;-237;-255;-674;2154;1905;256;-630;47;;3496;0;;0;0;0;0;-316;-333;413;0;0;0;0;0;0;0;0;0;0;0;135;5605;;345;103;1381;27245;21319;0;0;0;0;340;345;12;-1;;0;104;44;-30;-156;970;-1;-11;-23;651;634;1396;-2;-10;7;9;-9;46;208;;-88;-60;26;;457;297;-229;;50;0;140;1343;0;2154;;420;36;-206;;16;13;102;43;-9;-1;-209;-1597;9869;55;25;;;85
13:43:24.327;0;8;4;-1;;100;;1499;2528;363;;2;-8;0;0;-17;-19;;6852;12598;17517;30116;;1;57;47;160;150;;52;-42;16;-73;;64;-47;28;-104;;150;-119;43;-210;;126;-102;32;-171;430;795;2125;;344;266;68;1415;;130;77;11;856;1074;149;8550;7538;342;678;50;107;5;;142;58;-139;;-227;-238;-646;1077;1447;228;-634;137;;0;0;0;0;0;0;0;0;;-237;-255;-672;2216;1907;236;-633;41;;3293;0;;0;0;0;0;-383;-244;251;0;0;0;0;0;0;0;0;0;0;0;107;5387;;251;107;1178;19773;22129;0;0;0;0;318;251;12;-1;;0;104;44;-23;-161;950;10;-12;-39;1765;802;1218;-2;-20;-26;4;-6;7;210;;-13;-6;-5;;440;246;-236;;50;0;140;1077;0;2216;;404;-7;-213;;17;13;7;32;-9;-1;-228;-1619;9865;55;26;;;86
13:43:24.425;0;8;4;-1;;100;;1499;2528;363;;1;-12;0;0;-17;-19;;7097;13209;19001;32209;;1;47;41;160;153;;43;-35;13;-60;;66;-55;30;-99;;163;-131;50;-229;;136;-109;38;-191;474;2600;2399;;357;295;100;1565;;137;92;16;900;1145;211;8033;7253;321;653;49;72;4;;144;56;-153;;-226;-255;-640;1073;1446;252;-625;138;;0;0;0;0;0;0;0;0;;-236;-255;-669;2140;1908;219;-636;48;;3212;0;;0;0;0;0;-230;-112;69;0;0;0;0;0;0;0;0;0;0;0;72;5528;;251;107;1178;19773;22129;0;0;0;0;318;251;16;-1;;0;104;44;-38;-157;980;-21;-12;7;634;858;1158;0;1;2;1;-9;7;212;;-43;-17;4;;447;323;-229;;50;0;140;1073;0;2140;;412;77;-207;;18;16;102;47;-9;-1;-243;-1599;9868;55;25;;;87
13:43:24.558;0;8;4;-1;;100;;1499;2528;363;;1;-12;0;0;-17;-18;;7306;13860;20665;34525;;1;41;45;160;155;;37;-30;12;-52;;52;-50;32;-95;;134;-109;40;-188;;117;-92;28;-157;394;-1810;114;;266;311;111;1446;;92;92;20;826;1030;-148;3381;6257;135;563;51;102;5;;146;54;-129;;-224;-255;-638;1230;1445;241;-611;119;;0;0;0;0;0;0;0;0;;-235;-255;-666;2096;1909;204;-635;53;;3325;0;;0;0;0;0;-164;-35;4;0;0;0;0;0;0;0;0;0;0;0;102;5460;;251;107;1178;19773;22129;0;0;0;0;318;251;16;-1;;0;104;44;-14;-147;982;1;2;-32;1029;934;1038;-1;7;16;6;-5;-7;214;;-38;-9;2;;452;276;-230;;50;0;140;1230;0;2096;;417;26;-208;;20;18;216;59;-9;-2;-277;-1608;9866;55;26;;;88
13:43:24.640;0;8;4;-1;;100;;1499;2528;363;;1;-11;0;0;-17;-18;;7515;14437;22222;36660;;1;50;50;160;153;;46;-37;15;-64;;52;-50;32;-95;;134;-109;40;-188;;117;-92;28;-157;394;-1810;114;;266;311;111;1446;;92;92;20;826;1030;-148;3381;6257;135;563;51;102;5;;146;54;-129;;-223;-255;-638;1230;1445;241;-611;119;;0;0;0;0;0;0;0;0;;-235;-255;-666;2096;1909;204;-635;53;;3325;0;;0;0;0;0;-105;-4;-37;0;0;0;0;0;0;0;0;0;0;0;102;5460;;251;107;1178;19773;22129;0;0;0;0;318;251;16;-1;;0;104;44;-40;-156;988;-18;3;18;657;884;657;4;-1;15;-1;-6;-4;216;;-21;-9;13;;447;240;-230;;50;0;140;1230;0;2096;;412;-10;-208;;19;14;-94;45;-9;-1;-274;-1592;9869;55;25;;;89
13:43:24.763;0;8;4;-1;;100;;1499;3150;370;;1;-11;0;0;-17;-18;;7741;15014;23779;38794;;1;50;52;160;153;;46;-37;15;-64;;48;-51;30;-189;;144;-116;47;-200;;128;-98;35;-132;393;-6796;-2041;;296;311;77;1561;;84;91;13;1519;1707;1079;-4740;4151;383;603;66;415;12;;146;54;-97;;-222;-196;-629;1191;1443;220;-619;119;;0;0;0;0;0;0;0;0;;-234;-255;-663;2105;1910;178;-644;56;;3296;0;;0;0;0;0;-67;-5;20;0;0;0;0;0;0;0;0;0;0;0;56;5186;;251;107;1178;19773;22129;0;0;0;0;318;251;16;-1;;0;104;44;-33;-154;980;-16;0;5;281;748;871;-13;-4;0;0;-3;9;218;;0;3;8;;434;215;-236;;50;0;140;1191;0;2105;;421;-7;-208;;14;11;-106;26;-9;-2;-266;-1581;9871;55;25;;;90
